ID_Ville;Code_INSEE;Libelle_Commune;Organisme;Adresse_organisme;Code_ZIP;Commune;Telephone;Email;Site_Internet;Code_Region;Libelle_Region;Latitude;Longitude;Code_ZE2010;Libelle_Zone;Population;Academie;Code_Departement;Libelle_Departement;Libelle_Intercommunalite;Code_Arrondissement;Code_Canton
1;4001;Aiglun;Mairie d'Aiglun;Avenue des Docteurs-Paul-et-Marguerite-Jouve;4510;Aiglun;492346237;mairie@commune-aiglun04.fr;http://commune-aiglun04.fr;93;PROVENCE-ALPES-COTE D'AZUR;44.0507011414;6.14496994019;9301;Digne-les-Bains;1467;Aix-Marseille;4;ALPES-DE-HAUTE-PROVENCE;CA Provence-Alpes-Agglom??ration;3;5
2;4004;Allemagne-en-Provence;Mairie d'Allemagne-en-Provence;Place de Verdun;4500;Allemagne-en-Provence;492774310;mairie@allemagne04.com;;93;PROVENCE-ALPES-COTE D'AZUR;43.7811012268;6.00784015656;9302;Manosque;567;Aix-Marseille;4;ALPES-DE-HAUTE-PROVENCE;CA Durance-Lub??ron-Verdon Agglom??ration;4;15
3;4005;Allons;Mairie d'Allons;Rue Amiral-de-Richery;4170;Allons;492891073;mairie.allons@orange.fr;http://www.allons-alpes-haute-provence.fr;93;PROVENCE-ALPES-COTE D'AZUR;43.97706604;6.5951461792;9301;Digne-les-Bains;145;Aix-Marseille;4;ALPES-DE-HAUTE-PROVENCE;"""CC Alpes-Provence-Verdon """"Sources de lumi??re""""""";2;2
4;4006;Allos;Mairie d'Allos;Le Village;4260;Allos;492831800;accueil@mairie-allos.fr;http://www.mairie-allos.fr;93;PROVENCE-ALPES-COTE D'AZUR;44.2407798767;6.62885713577;9301;Digne-les-Bains;804;Aix-Marseille;4;ALPES-DE-HAUTE-PROVENCE;"""CC Alpes-Provence-Verdon """"Sources de lumi??re""""""";2;2
5;4007;Angles;Mairie d'Angles;Le Village;4170;Angles;492890854;mairie.angles0275@orange.fr;;93;PROVENCE-ALPES-COTE D'AZUR;43.9420280457;6.55837583542;9301;Digne-les-Bains;68;Aix-Marseille;4;ALPES-DE-HAUTE-PROVENCE;"""CC Alpes-Provence-Verdon """"Sources de lumi??re""""""";2;2
6;4008;Annot;Mairie d'Annot;Grand place du March??;4240;Annot;492832209;info@annot.com;http://www.annot.com;93;PROVENCE-ALPES-COTE D'AZUR;43.9670982361;6.6661901474;9307;Nice;1079;Aix-Marseille;4;ALPES-DE-HAUTE-PROVENCE;"""CC Alpes-Provence-Verdon """"Sources de lumi??re""""""";2;2
7;4009;Archail;Mairie d'Archail;Le Village;4420;Archail;492354146;;;93;PROVENCE-ALPES-COTE D'AZUR;44.121098;6.3344699;9301;Digne-les-Bains;15;Aix-Marseille;4;ALPES-DE-HAUTE-PROVENCE;CA Provence-Alpes-Agglom??ration;3;13
8;4012;Aubenas-les-Alpes;Mairie d'Aubenas-les-Alpes;Le Village;4110;Aubenas-les-Alpes;492766164;mairie-aubenaslesalpes@wanadoo.fr;;93;PROVENCE-ALPES-COTE D'AZUR;43.9305992126;5.68175983429;9302;Manosque;98;Aix-Marseille;4;ALPES-DE-HAUTE-PROVENCE;CC Haute-Provence-Pays de Banon;4;11
9;4013;Aubignosc;Mairie d'Aubignosc;Le Village;4200;Aubignosc;492624194;mairie.aubignosc@wanadoo.fr;http://www.aubignosc04.fr;93;PROVENCE-ALPES-COTE D'AZUR;44.1298446655;5.96958303452;9301;Digne-les-Bains;607;Aix-Marseille;4;ALPES-DE-HAUTE-PROVENCE;CC Jabron-Lure-Van??on-Durance;4;3
10;4016;Authon;Mairie d'Authon;Le Village;4200;Authon;492614247;mairie-authon@orange.fr;;93;PROVENCE-ALPES-COTE D'AZUR;44.2382469177;6.12702608109;9301;Digne-les-Bains;62;Aix-Marseille;4;ALPES-DE-HAUTE-PROVENCE;CC du Sisteronais-Bu??ch;4;14
11;4017;Auzet;Mairie d'Auzet;Le Village;4140;Auzet;492352039;mairie.auzet@wanadoo.fr;;93;PROVENCE-ALPES-COTE D'AZUR;44.2958297729;6.31780195236;9301;Digne-les-Bains;103;Aix-Marseille;4;ALPES-DE-HAUTE-PROVENCE;CA Provence-Alpes-Agglom??ration;3;13
12;4018;Banon;Mairie de Banon;Place Charles-Vial;4150;Banon;492732008;mairiebanon-ahp@wanadoo.fr;http://www.village-banon.fr;93;PROVENCE-ALPES-COTE D'AZUR;44.0379981995;5.62959003448;9302;Manosque;985;Aix-Marseille;4;ALPES-DE-HAUTE-PROVENCE;CC Haute-Provence-Pays de Banon;4;11
13;4019;Barcelonnette;Mairie de Barcelonnette;Place Valle-de-Bravo;4400;Barcelonnette;492807900;mairie@ville-barcelonnette.fr;http://www.barcelonnette.com;93;PROVENCE-ALPES-COTE D'AZUR;44.3862304688;6.64792013168;9304;Gap;2800;Aix-Marseille;4;ALPES-DE-HAUTE-PROVENCE;CC Vall??e de l'Ubaye - Serre-Pon??on;1;1
14;4020;Barles;Mairie de Barles;Le Village;4140;Barles;492351009;mairie.barles@orange.fr;;93;PROVENCE-ALPES-COTE D'AZUR;44.2634620667;6.26818799973;9301;Digne-les-Bains;136;Aix-Marseille;4;ALPES-DE-HAUTE-PROVENCE;CA Provence-Alpes-Agglom??ration;3;13
15;4021;Barras;Mairie de Barras;Le Village;4380;Barras;492347347;mairie.barras@nordnet.fr;;93;PROVENCE-ALPES-COTE D'AZUR;44.1050605774;6.11366796494;9301;Digne-les-Bains;146;Aix-Marseille;4;ALPES-DE-HAUTE-PROVENCE;CA Provence-Alpes-Agglom??ration;3;5
16;4022;Barr??me;Mairie de Barr??me;Place du Capitaine-Pierre-Rose;4330;Barr??me;492342004;mairie.barreme@wanadoo.fr;http://www.barreme.fr;93;PROVENCE-ALPES-COTE D'AZUR;43.9520072937;6.36622095108;9301;Digne-les-Bains;440;Aix-Marseille;4;ALPES-DE-HAUTE-PROVENCE;"""CC Alpes-Provence-Verdon """"Sources de lumi??re""""""";2;12
17;4023;Bayons;Mairie de Bayons;1 rue de la Mairie;4250;Bayons;492683103;communedebayons@9business.fr;http://www.communedebayons.wix.com;93;PROVENCE-ALPES-COTE D'AZUR;44.337687;6.1623;9301;Digne-les-Bains;187;Aix-Marseille;4;ALPES-DE-HAUTE-PROVENCE;CC du Sisteronais-Bu??ch;4;13
18;4024;Beaujeu;Mairie de Beaujeu;Le Village;4420;Beaujeu;492349174;mairiedebeaujeu@yahoo.fr;;93;PROVENCE-ALPES-COTE D'AZUR;44.2033348083;6.37144994736;9301;Digne-les-Bains;133;Aix-Marseille;4;ALPES-DE-HAUTE-PROVENCE;CA Provence-Alpes-Agglom??ration;3;13
19;4025;Beauvezer;Mairie de Beauvezer;Le Village;4370;Beauvezer;492834347;;;93;PROVENCE-ALPES-COTE D'AZUR;44.143249;6.591834;9301;Digne-les-Bains;384;Aix-Marseille;4;ALPES-DE-HAUTE-PROVENCE;"""CC Alpes-Provence-Verdon """"Sources de lumi??re""""""";2;2
20;4026;Bellaffaire;Mairie de Bellaffaire;Le Village;4250;Bellaffaire;492551694;mairie.bellaffaire@wanadoo.fr;http://www.bellaffaire.fr;93;PROVENCE-ALPES-COTE D'AZUR;44.4192314148;6.1759557724;9304;Gap;149;Aix-Marseille;4;ALPES-DE-HAUTE-PROVENCE;CC du Sisteronais-Bu??ch;4;13
21;4027;Bevons;Mairie de Bevons;Le Castel;4200;Bevons;492628016;mairie.bevons@wanadoo.fr;;93;PROVENCE-ALPES-COTE D'AZUR;44.178652;5.884651;9301;Digne-les-Bains;294;Aix-Marseille;4;ALPES-DE-HAUTE-PROVENCE;CC Jabron-Lure-Van??on-Durance;4;14
22;4028;Beynes;Mairie de Beynes;Ch??teau de Fruchier;4270;Beynes;492355736;mairie.beynes@wanadoo.fr;;93;PROVENCE-ALPES-COTE D'AZUR;43.9934654236;6.20194101334;9301;Digne-les-Bains;134;Aix-Marseille;4;ALPES-DE-HAUTE-PROVENCE;CA Provence-Alpes-Agglom??ration;3;12
23;4030;Blieux;Mairie de Blieux;Le Village;4330;Blieux;492342764;mairie.blieux@gmail.com;;93;PROVENCE-ALPES-COTE D'AZUR;43.872705;6.371197;9301;Digne-les-Bains;60;Aix-Marseille;4;ALPES-DE-HAUTE-PROVENCE;"""CC Alpes-Provence-Verdon """"Sources de lumi??re""""""";2;12
24;4031;Bras-d'Asse;Mairie de Bras-d'Asse;21 route du Pont-de-l'Asse;4270;Bras-d'Asse;492344024;administre.brasdasse@orange.fr;http://www.mairie-brasdasse-labegude.fr;93;PROVENCE-ALPES-COTE D'AZUR;43.9244134;6.12729739999997;9301;Digne-les-Bains;578;Aix-Marseille;4;ALPES-DE-HAUTE-PROVENCE;CA Provence-Alpes-Agglom??ration;3;12
25;4032;Braux;Mairie de Braux;Place de la Mairie;4240;Braux;492832169;mairiebraux@gmail.com;http://braux04240.wix.com/braux;93;PROVENCE-ALPES-COTE D'AZUR;43.9872512817;6.69924020767;9307;Nice;125;Aix-Marseille;4;ALPES-DE-HAUTE-PROVENCE;"""CC Alpes-Provence-Verdon """"Sources de lumi??re""""""";2;2
26;4033;Ubaye-Serre-Pon??on;Mairie d??l??gu??e de Saint-Vincent-les-Forts;Saint-Vincent-les-Forts;4340;Ubaye-Serre-Pon??on;492855208;st.vincent.les.forts@wanadoo.fr;;93;PROVENCE-ALPES-COTE D'AZUR;44.445049;6.3730019;9304;Gap;759;Aix-Marseille;4;ALPES-DE-HAUTE-PROVENCE;CC Vall??e de l'Ubaye - Serre-Pon??on;1;1
27;4033;Ubaye-Serre-Pon??on;Mairie d'Ubaye-Serre-Pon??on;La Br??ole;4340;Ubaye-Serre-Pon??on;492855261;mairie.la.breole@wanadoo.fr;http://www.labreole.fr;93;PROVENCE-ALPES-COTE D'AZUR;44.4565734863;6.29408597946;9304;Gap;759;Aix-Marseille;4;ALPES-DE-HAUTE-PROVENCE;CC Vall??e de l'Ubaye - Serre-Pon??on;1;1
28;4034;La Brillanne;Mairie de La Brillanne;Place Sainte-Agathe;4700;La Brillanne;492786318;mairie.labrillanne04700@orange.fr;http://www.dlva.fr;93;PROVENCE-ALPES-COTE D'AZUR;43.9303016663;5.89052009583;9302;Manosque;1164;Aix-Marseille;4;ALPES-DE-HAUTE-PROVENCE;CA Durance-Lub??ron-Verdon Agglom??ration;4;6
29;4035;Brunet;Mairie de Brunet;Le Village;4210;Brunet;492748813;mairie-brunet@orange.fr;;93;PROVENCE-ALPES-COTE D'AZUR;43.8926048279;6.02999687195;9302;Manosque;284;Aix-Marseille;4;ALPES-DE-HAUTE-PROVENCE;CA Durance-Lub??ron-Verdon Agglom??ration;4;15
30;4036;Le Brusquet;Mairie du Brusquet;Quartier l'Arzi??ras;4420;Le Brusquet;492356900;mairie-le-brusquet@wanadoo.fr;http://www.le-brusquet.com;93;PROVENCE-ALPES-COTE D'AZUR;44.1610641479;6.30940914154;9301;Digne-les-Bains;986;Aix-Marseille;4;ALPES-DE-HAUTE-PROVENCE;CA Provence-Alpes-Agglom??ration;3;13
31;4037;Le Caire;Mairie du Caire;Le Village;4250;Le Caire;492683529;mairie.lecaire@wanadoo.fr;;93;PROVENCE-ALPES-COTE D'AZUR;44.3698539734;6.0608458519;9301;Digne-les-Bains;73;Aix-Marseille;4;ALPES-DE-HAUTE-PROVENCE;CC du Sisteronais-Bu??ch;4;13
32;4039;Castellane;Mairie de Castellane;Place Marcel-Sauvaire;4120;Castellane;492836007;accueil@mairie-castellane.fr;http://www.mairie-castellane.fr;93;PROVENCE-ALPES-COTE D'AZUR;43.846698761;6.51086997986;9301;Digne-les-Bains;1564;Aix-Marseille;4;ALPES-DE-HAUTE-PROVENCE;"""CC Alpes-Provence-Verdon """"Sources de lumi??re""""""";2;2
33;4040;Le Castellard-M??lan;Mairie du Castellard-M??lan;Le Village;4380;Le Castellard-M??lan;492347762;mairie.castellard-melan@orange.fr;http://www.castellard-melan.fr;93;PROVENCE-ALPES-COTE D'AZUR;44.1874465942;6.12480115891;9301;Digne-les-Bains;65;Aix-Marseille;4;ALPES-DE-HAUTE-PROVENCE;CA Provence-Alpes-Agglom??ration;3;4
34;4041;Le Castellet;Mairie du Castellet;Rue du Canal;4700;Le Castellet;492787403;mairie.lecastellet@orange.fr;http://www.le-castellet.fr;93;PROVENCE-ALPES-COTE D'AZUR;43.9379196167;5.97996282578;9302;Manosque;299;Aix-Marseille;4;ALPES-DE-HAUTE-PROVENCE;CA Durance-Lub??ron-Verdon Agglom??ration;4;12
35;4042;Castellet-l??s-Sausses;Mairie de Castellet-l??s-Sausses;Le Village;4320;Castellet-l??s-Sausses;493054287;mairie-de-castellet-les-sausses@alsatis.net;;93;PROVENCE-ALPES-COTE D'AZUR;43.9944801331;6.763879776;9307;Nice;138;Aix-Marseille;4;ALPES-DE-HAUTE-PROVENCE;"""CC Alpes-Provence-Verdon """"Sources de lumi??re""""""";2;2
36;4043;Val-de-Chalvagne;Mairie de Val-de-Chalvagne;Hameau Castellet-Saint-Cassien;4320;Val-de-Chalvagne;493054029;mairie@val-de-chalvagne.fr;http://www.val-de-chalvagne.fr;93;PROVENCE-ALPES-COTE D'AZUR;43.914949;6.807721;9307;Nice;90;Aix-Marseille;4;ALPES-DE-HAUTE-PROVENCE;"""CC Alpes-Provence-Verdon """"Sources de lumi??re""""""";2;2
37;4045;C??reste;Mairie de C??reste;Cours Aristide-Briand;4280;C??reste;492790015;mairie@cereste.fr;http://www.cereste.fr;93;PROVENCE-ALPES-COTE D'AZUR;43.8564987183;5.58961009979;9316;Cavaillon - Apt;1219;Aix-Marseille;4;ALPES-DE-HAUTE-PROVENCE;CC Pays d'Apt-Luberon;4;11
38;4046;Le Chaffaut-Saint-Jurson;Mairie du Chaffaut-Saint-Jurson;Le Village;4510;Le Chaffaut-Saint-Jurson;492346365;mairieduchaffaut@wanadoo.fr;;93;PROVENCE-ALPES-COTE D'AZUR;44.0376014709;6.14969015121;9301;Digne-les-Bains;803;Aix-Marseille;4;ALPES-DE-HAUTE-PROVENCE;CA Provence-Alpes-Agglom??ration;3;12
39;4047;Champtercier;Mairie de Champtercier;Le Village;4660;Champtercier;492311037;mairie@champtercier.fr;http://www.champtercier.fr;93;PROVENCE-ALPES-COTE D'AZUR;44.0960083008;6.1620259285;9301;Digne-les-Bains;864;Aix-Marseille;4;ALPES-DE-HAUTE-PROVENCE;CA Provence-Alpes-Agglom??ration;3;5
40;4049;Ch??teau-Arnoux-Saint-Auban;Mairie du Ch??teau-Arnoux-Saint-Auban;1 rue Victorin-Maurel;4160;Ch??teau-Arnoux-Saint-Auban;492332000;e.martelet@mairie-casa04.fr;http://www.chateau-arnoux-saint-auban.fr;93;PROVENCE-ALPES-COTE D'AZUR;44.0936012268;6.00865983963;9301;Digne-les-Bains;5248;Aix-Marseille;4;ALPES-DE-HAUTE-PROVENCE;CA Provence-Alpes-Agglom??ration;3;3
41;4050;Ch??teaufort;Mairie de Ch??teaufort;Le Village;4250;Ch??teaufort;492621230;chateaufort.mairie04@wanadoo.fr;;93;PROVENCE-ALPES-COTE D'AZUR;44.2745933533;6.01773405075;9301;Digne-les-Bains;28;Aix-Marseille;4;ALPES-DE-HAUTE-PROVENCE;CC du Sisteronais-Bu??ch;4;13
42;4051;Ch??teauneuf-Miravail;Mairie de Ch??teauneuf-Miravail;Les Curniers;4200;Ch??teauneuf-Miravail;492620044;mairie-ch-miravail@wanadoo.fr;;93;PROVENCE-ALPES-COTE D'AZUR;44.1593322754;5.71657419205;9301;Digne-les-Bains;69;Aix-Marseille;4;ALPES-DE-HAUTE-PROVENCE;CC Jabron-Lure-Van??on-Durance;4;14
43;4053;Ch??teauneuf-Val-Saint-Donat;Mairie de Ch??teauneuf-Val-Saint-Donat;Place de la Mairie;4200;Ch??teauneuf-Val-Saint-Donat;492624219;mairie.chateauneufvsd@orange.fr;http://www.chateauneuf-v-s-d-04.fr;93;PROVENCE-ALPES-COTE D'AZUR;44.0939750671;5.94993400574;9301;Digne-les-Bains;524;Aix-Marseille;4;ALPES-DE-HAUTE-PROVENCE;CC Jabron-Lure-Van??on-Durance;4;3
44;4054;Ch??teauredon;Mairie de Ch??teauredon;Le Village;4270;Ch??teauredon;492355306;chateauredon.mairie@wanadoo.fr;;93;PROVENCE-ALPES-COTE D'AZUR;44.0147171021;6.21359109879;9301;Digne-les-Bains;74;Aix-Marseille;4;ALPES-DE-HAUTE-PROVENCE;CA Provence-Alpes-Agglom??ration;3;12
45;4055;Chaudon-Norante;Mairie de Chaudon-Norante;Le Village;4330;Chaudon-Norante;492342475;mairie-chaudon-norante@orange.fr;;93;PROVENCE-ALPES-COTE D'AZUR;43.9954986572;6.33115005493;9301;Digne-les-Bains;185;Aix-Marseille;4;ALPES-DE-HAUTE-PROVENCE;"""CC Alpes-Provence-Verdon """"Sources de lumi??re""""""";2;12
46;4057;Clamensane;Mairie de Clamensane;Le Village;4250;Clamensane;492683093;clamensane-mairie@orange.fr;;93;PROVENCE-ALPES-COTE D'AZUR;44.3216968;6.0689115;9301;Digne-les-Bains;175;Aix-Marseille;4;ALPES-DE-HAUTE-PROVENCE;CC du Sisteronais-Bu??ch;4;13
47;4058;Claret;Mairie de Claret;Placette de la Mairie;5110;Claret;492683240;mairiedeclaret04@orange.fr;;93;PROVENCE-ALPES-COTE D'AZUR;44.371635437;5.95666980743;9304;Gap;274;Aix-Marseille;4;ALPES-DE-HAUTE-PROVENCE;CA Gap-Tallard-Durance;4;13
48;4059;Clumanc;Mairie de Clumanc;????cole la Cine;4330;Clumanc;492342216;mairiedeclumanc@orange.fr;;93;PROVENCE-ALPES-COTE D'AZUR;44.0233917236;6.38300800323;9301;Digne-les-Bains;216;Aix-Marseille;4;ALPES-DE-HAUTE-PROVENCE;"""CC Alpes-Provence-Verdon """"Sources de lumi??re""""""";2;12
49;4061;Colmars;Mairie de Colmars-les-Alpes;Place Joseph-Jirieud;4370;Colmars;492834321;mairie.colmars-les-alpes@wanadoo.fr;;93;PROVENCE-ALPES-COTE D'AZUR;44.182011;6.627112;9301;Digne-les-Bains;501;Aix-Marseille;4;ALPES-DE-HAUTE-PROVENCE;"""CC Alpes-Provence-Verdon """"Sources de lumi??re""""""";2;2
50;4062;La Condamine-Ch??telard;Mairie de La Condamine-Ch??telard;1 place du Bicentenaire;4530;La Condamine-Ch??telard;492843042;lacondamine394@orange.fr;http://www.lacondaminechatelard.fr;93;PROVENCE-ALPES-COTE D'AZUR;44.458205;6.745126;9304;Gap;159;Aix-Marseille;4;ALPES-DE-HAUTE-PROVENCE;CC Vall??e de l'Ubaye - Serre-Pon??on;1;1
51;4063;Corbi??res-en-Provence;Mairie de Corbi??res;1 place Haute;4220;Corbi??res-en-Provence;492782212;secretariat@mairie-corbieres.fr;http://www.mairie-corbieres.fr;93;PROVENCE-ALPES-COTE D'AZUR;43.7613983154;5.7498497963;9302;Manosque;1216;Aix-Marseille;4;ALPES-DE-HAUTE-PROVENCE;CA Durance-Lub??ron-Verdon Agglom??ration;4;9
52;4065;Cruis;Mairie de Cruis;Le Village;4230;Cruis;492770431;mairie.cruis@wanadoo.fr;http://www.cruis.fr;93;PROVENCE-ALPES-COTE D'AZUR;44.0626068115;5.83551979065;9302;Manosque;647;Aix-Marseille;4;ALPES-DE-HAUTE-PROVENCE;CC Pays Forcalquier et Montagne de Lure;4;6
53;4066;Curbans;Mairie de Curbans;Complexe communal;5110;Curbans;492542187;mairiedecurbans@wanadoo.fr;http://curbans.fr;93;PROVENCE-ALPES-COTE D'AZUR;44.4285697937;6.03829813004;9304;Gap;587;Aix-Marseille;4;ALPES-DE-HAUTE-PROVENCE;CA Gap-Tallard-Durance;4;13
54;4067;Curel;Mairie de Curel;Le Village;4200;Curel;492620940;mairie.curel@orange.fr;http://www.curel.fr;93;PROVENCE-ALPES-COTE D'AZUR;44.1772384644;5.66169404984;9301;Digne-les-Bains;56;Aix-Marseille;4;ALPES-DE-HAUTE-PROVENCE;CC Jabron-Lure-Van??on-Durance;4;14
55;4068;Dauphin;Mairie de Dauphin;Le Village;4300;Dauphin;492795818;mairie-dauphin@wanadoo.fr;;93;PROVENCE-ALPES-COTE D'AZUR;43.8988037109;5.78411197662;9302;Manosque;844;Aix-Marseille;4;ALPES-DE-HAUTE-PROVENCE;CC Haute-Provence-Pays de Banon;4;11
56;4069;Demandolx;Mairie de Demandolx;Le Village;4120;Demandolx;492836366;mairie.demandolx@wanadoo.fr;;93;PROVENCE-ALPES-COTE D'AZUR;43.8695487976;6.57936191559;9301;Digne-les-Bains;138;Aix-Marseille;4;ALPES-DE-HAUTE-PROVENCE;"""CC Alpes-Provence-Verdon """"Sources de lumi??re""""""";2;2
57;4070;Digne-les-Bains;Mairie de Digne-les-Bains;Place du G??n??ral-de-Gaulle;4003;Digne-les-Bains Cedex;492305200;cabinet.mairie@dignelesbains.fr;http://www.dignelesbains.fr;93;PROVENCE-ALPES-COTE D'AZUR;44.0928359;6.2358831;9301;Digne-les-Bains;17329;Aix-Marseille;4;ALPES-DE-HAUTE-PROVENCE;CA Provence-Alpes-Agglom??ration;3;98
58;4072;Draix;Mairie de Draix;Le Village;4420;Draix;492354085;mairie.draix@nordnet.fr;;93;PROVENCE-ALPES-COTE D'AZUR;44.1346244812;6.34251880646;9301;Digne-les-Bains;117;Aix-Marseille;4;ALPES-DE-HAUTE-PROVENCE;CA Provence-Alpes-Agglom??ration;3;13
59;4073;Enchastrayes;Mairie d'Enchastrayes;Place de l?????????glise;4400;Enchastrayes;492810548;mairie.enchastrayes@orange.fr;http://www.enchastrayes.fr;93;PROVENCE-ALPES-COTE D'AZUR;44.369543;6.69109;9304;Gap;408;Aix-Marseille;4;ALPES-DE-HAUTE-PROVENCE;CC Vall??e de l'Ubaye - Serre-Pon??on;1;1
60;4074;Entrages;Mairie d'Entrages;Le Village;4000;Entrages;492314904;mairie.entrages@orange.fr;;93;PROVENCE-ALPES-COTE D'AZUR;44.0456008911;6.26588010788;9301;Digne-les-Bains;106;Aix-Marseille;4;ALPES-DE-HAUTE-PROVENCE;CA Provence-Alpes-Agglom??ration;3;4
61;4075;Entrepierres;Mairie d'Entrepierres;La Girale;4200;Entrepierres;492614171;mairie@entrepierres.fr;http://www.entrepierres.fr;93;PROVENCE-ALPES-COTE D'AZUR;44.1972770691;5.99108886719;9301;Digne-les-Bains;391;Aix-Marseille;4;ALPES-DE-HAUTE-PROVENCE;CC du Sisteronais-Bu??ch;4;14
62;4076;Entrevaux;Mairie d'Entrevaux;Place Charles-Panier;4320;Entrevaux;493053410;administration@mairie-entrevaux.fr;;93;PROVENCE-ALPES-COTE D'AZUR;43.9499784;6.8101685;9307;Nice;874;Aix-Marseille;4;ALPES-DE-HAUTE-PROVENCE;"""CC Alpes-Provence-Verdon """"Sources de lumi??re""""""";2;2
63;4077;Entrevennes;Mairie d'Entrevennes;Place de la Mairie;4700;Entrevennes;492786553;mairie@entrevennes.net;http://www.dlva.fr;93;PROVENCE-ALPES-COTE D'AZUR;43.9378700256;6.0244140625;9302;Manosque;171;Aix-Marseille;4;ALPES-DE-HAUTE-PROVENCE;CA Durance-Lub??ron-Verdon Agglom??ration;4;12
64;4079;L'Escale;Mairie de L'Escale;Rue Fran??ois-Arnaud;4160;L'Escale;492641935;mairie.delescale@wanadoo.fr;http://www.lescale.fr;93;PROVENCE-ALPES-COTE D'AZUR;44.0848007202;6.02430009842;9301;Digne-les-Bains;1424;Aix-Marseille;4;ALPES-DE-HAUTE-PROVENCE;CA Provence-Alpes-Agglom??ration;3;3
65;4081;Esparron-de-Verdon;Mairie d'Esparron-de-Verdon;Le Village;4800;Esparron-de-Verdon;492771223;mairie.esparron-de-verdon@wanadoo.fr;;93;PROVENCE-ALPES-COTE D'AZUR;43.7384147644;5.9704580307;9302;Manosque;403;Aix-Marseille;4;ALPES-DE-HAUTE-PROVENCE;CA Durance-Lub??ron-Verdon Agglom??ration;4;15
66;4084;Estoublon;Mairie d'Estoublon;Rue Louis-Laurens;4270;Estoublon;492344087;mairie.estoublon@orange.fr;;93;PROVENCE-ALPES-COTE D'AZUR;43.9438247681;6.17105388641;9301;Digne-les-Bains;493;Aix-Marseille;4;ALPES-DE-HAUTE-PROVENCE;CA Provence-Alpes-Agglom??ration;3;12
67;4085;Faucon-du-Caire;Mairie de Faucon-du-Caire;Le Village;4250;Faucon-du-Caire;492684022;mairie.fauconducaire@wanadoo.fr;;93;PROVENCE-ALPES-COTE D'AZUR;44.3975563049;6.09197807312;9301;Digne-les-Bains;54;Aix-Marseille;4;ALPES-DE-HAUTE-PROVENCE;CC du Sisteronais-Bu??ch;4;13
68;4086;Faucon-de-Barcelonnette;Mairie de Faucon-de-Barcelonnette;Maison Rose;4400;Faucon-de-Barcelonnette;492811424;mairiefaucondebarcelonnette@wanadoo.fr;http://www.faucondebarcelonnette.fr;93;PROVENCE-ALPES-COTE D'AZUR;44.3937034607;6.67817020416;9304;Gap;335;Aix-Marseille;4;ALPES-DE-HAUTE-PROVENCE;CC Vall??e de l'Ubaye - Serre-Pon??on;1;1
69;4087;Fontienne;Mairie de Fontienne;Le Village;4230;Fontienne;492730010;mairie-fontienne@orange.fr;;93;PROVENCE-ALPES-COTE D'AZUR;44.009279;5.794377;9302;Manosque;130;Aix-Marseille;4;ALPES-DE-HAUTE-PROVENCE;CC Pays Forcalquier et Montagne de Lure;4;6
70;4088;Forcalquier;Mairie de Forcalquier;Place du Bourguet;4300;Forcalquier;492709100;mairie.forcalquier@ville-forcalquier.fr;http://www.ville-forcalquier.fr;93;PROVENCE-ALPES-COTE D'AZUR;43.9594993591;5.7808098793;9302;Manosque;5103;Aix-Marseille;4;ALPES-DE-HAUTE-PROVENCE;CC Pays Forcalquier et Montagne de Lure;4;6
71;4090;Le Fugeret;Mairie du Fugeret;Place de la Mairie;4240;Le Fugeret;492832016;le.fugeret.mairie@wanadoo.fr;http://www.lefugeret.com;93;PROVENCE-ALPES-COTE D'AZUR;44.003562;6.641248;9307;Nice;202;Aix-Marseille;4;ALPES-DE-HAUTE-PROVENCE;"""CC Alpes-Provence-Verdon """"Sources de lumi??re""""""";2;2
72;4091;Ganagobie;Mairie de Ganagobie;Le Village;4310;Ganagobie;492680321;mairie-de-ganagobie@wanadoo.fr;;93;PROVENCE-ALPES-COTE D'AZUR;44.0095596313;5.9168920517;9302;Manosque;96;Aix-Marseille;4;ALPES-DE-HAUTE-PROVENCE;CA Provence-Alpes-Agglom??ration;3;3
73;4092;La Garde;Mairie de La Garde;Rue de l'????glise;4120;La Garde;492836847;mairie.lagarde04@wanadoo.fr;;93;PROVENCE-ALPES-COTE D'AZUR;43.8302536011;6.55742120743;9301;Digne-les-Bains;92;Aix-Marseille;4;ALPES-DE-HAUTE-PROVENCE;"""CC Alpes-Provence-Verdon """"Sources de lumi??re""""""";2;2
74;4093;Gigors;Mairie de Gigors;Le Village;4250;Gigors;952345764;mairie.gigors@free.fr;;93;PROVENCE-ALPES-COTE D'AZUR;44.4189720154;6.15969514847;9304;Gap;61;Aix-Marseille;4;ALPES-DE-HAUTE-PROVENCE;CC du Sisteronais-Bu??ch;4;13
75;4094;Gr??oux-les-Bains;Mairie de Gr??oux-les-Bains;Place de l'H??tel-de-Ville;4800;Gr??oux-les-Bains;492780025;accueil@mairie-greouxlesbains.fr;http://www.mairie-greouxlesbains.fr;93;PROVENCE-ALPES-COTE D'AZUR;43.75833;5.884393;9302;Manosque;2681;Aix-Marseille;4;ALPES-DE-HAUTE-PROVENCE;CA Durance-Lub??ron-Verdon Agglom??ration;4;15
76;4095;L'Hospitalet;Mairie de L'Hospitalet;1 le Perron;4150;L'Hospitalet;492733066;lhospitalet-cne@wanadoo.fr;;93;PROVENCE-ALPES-COTE D'AZUR;44.0873260498;5.69923496246;9302;Manosque;90;Aix-Marseille;4;ALPES-DE-HAUTE-PROVENCE;CC Haute-Provence-Pays de Banon;4;11
77;4096;Jausiers;Mairie de Jausiers;14 avenue des Mexicains;4850;Jausiers;492810616;mairie.de.jausiers@wanadoo.fr;http://www.ville-jausiers.fr;93;PROVENCE-ALPES-COTE D'AZUR;44.419576;6.733329;9304;Gap;1159;Aix-Marseille;4;ALPES-DE-HAUTE-PROVENCE;CC Vall??e de l'Ubaye - Serre-Pon??on;1;1
78;4097;La Javie;Mairie de La Javie;Place de la Mairie;4420;La Javie;492349176;mairie.javie@orange.fr;;93;PROVENCE-ALPES-COTE D'AZUR;44.1753044128;6.34948921204;9301;Digne-les-Bains;410;Aix-Marseille;4;ALPES-DE-HAUTE-PROVENCE;CA Provence-Alpes-Agglom??ration;3;13
79;4099;Lambruisse;Mairie de Lambruisse;3 rue du Cimeti??re;4170;Lambruisse;492891000;mairie.lambruisse@orange.fr;;93;PROVENCE-ALPES-COTE D'AZUR;44.047796;6.443669;9301;Digne-les-Bains;100;Aix-Marseille;4;ALPES-DE-HAUTE-PROVENCE;"""CC Alpes-Provence-Verdon """"Sources de lumi??re""""""";2;2
80;4101;Lardiers;Mairie de Lardiers;Rue des Fontaines;4230;Lardiers;492732981;mairie.de.lardiers@orange.fr;http://www.lardiers04.fr;93;PROVENCE-ALPES-COTE D'AZUR;44.0572357178;5.71243476868;9302;Manosque;129;Aix-Marseille;4;ALPES-DE-HAUTE-PROVENCE;CC Pays Forcalquier et Montagne de Lure;4;6
81;4102;Le Lauzet-Ubaye;Mairie du Lauzet-Ubaye;Le Village;4340;Le Lauzet-Ubaye;492855127;mairie.lauzetubaye@wanadoo.fr;http://www.lauzetubaye.fr;93;PROVENCE-ALPES-COTE D'AZUR;44.4282875061;6.43507003784;9304;Gap;188;Aix-Marseille;4;ALPES-DE-HAUTE-PROVENCE;CC Vall??e de l'Ubaye - Serre-Pon??on;1;1
82;4104;Limans;Mairie de Limans;Place de la Tour-de-Guet;4300;Limans;492730169;mairie.limans@wanadoo.fr;;93;PROVENCE-ALPES-COTE D'AZUR;43.985168457;5.73100185394;9302;Manosque;379;Aix-Marseille;4;ALPES-DE-HAUTE-PROVENCE;CC Pays Forcalquier et Montagne de Lure;4;6
83;4106;Lurs;Mairie de Lurs;Rue de la Mairie;4700;Lurs;492799524;mairie-de-lurs@wanadoo.fr;http://www.lurs.fr;93;PROVENCE-ALPES-COTE D'AZUR;43.9687347412;5.88967323303;9302;Manosque;392;Aix-Marseille;4;ALPES-DE-HAUTE-PROVENCE;CC Pays Forcalquier et Montagne de Lure;4;6
84;4107;Majastres;Mairie de Majastres;le Village;4270;Majastres;;;;93;PROVENCE-ALPES-COTE D'AZUR;43.9136505127;6.28891706467;9301;Digne-les-Bains;4;Aix-Marseille;4;ALPES-DE-HAUTE-PROVENCE;CA Provence-Alpes-Agglom??ration;3;12
85;4108;Malijai;Mairie de Malijai;Le Ch??teau;4350;Malijai;492340112;mairie-de-malijai@wanadoo.fr;http://www.malijai.fr;93;PROVENCE-ALPES-COTE D'AZUR;44.0580596924;6.0978012085;9301;Digne-les-Bains;2005;Aix-Marseille;4;ALPES-DE-HAUTE-PROVENCE;CA Provence-Alpes-Agglom??ration;3;5
86;4109;Mallefougasse-Aug??s;Mairie de Mallefougasse-Aug??s;8 rue du Jas;4230;Mallefougasse-Aug??s;979313320;mairie.mallefougasse@orange.fr;http://mallefougasse.chez-alice.fr;93;PROVENCE-ALPES-COTE D'AZUR;44.0656608;5.8991274;9302;Manosque;331;Aix-Marseille;4;ALPES-DE-HAUTE-PROVENCE;CA Provence-Alpes-Agglom??ration;3;6
87;4110;Mallemoisson;Mairie de Mallemoisson;Place de la R??publique;4510;Mallemoisson;492346503;mairiemallemoisson@wanadoo.fr;http://www.mairie-mallemoisson.fr;93;PROVENCE-ALPES-COTE D'AZUR;44.0423927307;6.12560081482;9301;Digne-les-Bains;1071;Aix-Marseille;4;ALPES-DE-HAUTE-PROVENCE;CA Provence-Alpes-Agglom??ration;3;5
88;4111;Mane;Mairie de Mane;Place de l'????glise;4300;Mane;492750413;mairie@mane-en-provence.com;http://www.mane-en-provence.com;93;PROVENCE-ALPES-COTE D'AZUR;43.9371986389;5.76671981812;9302;Manosque;1375;Aix-Marseille;4;ALPES-DE-HAUTE-PROVENCE;CC Haute-Provence-Pays de Banon;4;11
89;4112;Manosque;Mairie de Manosque;Place de l'H??tel-de-Ville;4101;Manosque Cedex;492703400;accueil@ville-manosque.fr;http://www.ville-manosque.fr;93;PROVENCE-ALPES-COTE D'AZUR;43.8338012695;5.78252983093;9302;Manosque;22992;Aix-Marseille;4;ALPES-DE-HAUTE-PROVENCE;CA Durance-Lub??ron-Verdon Agglom??ration;4;99
90;4113;Marcoux;Mairie de Marcoux;Place de la Mairie;4420;Marcoux;492354105;mairiemarcoux04@wanadoo.fr;;93;PROVENCE-ALPES-COTE D'AZUR;44.1287841797;6.27604389191;9301;Digne-les-Bains;479;Aix-Marseille;4;ALPES-DE-HAUTE-PROVENCE;CA Provence-Alpes-Agglom??ration;3;4
91;4115;M??ailles;Mairie de M??ailles;Le Village;4240;M??ailles;492833255;mairie.meailles@wanadoo.fr;;93;PROVENCE-ALPES-COTE D'AZUR;44.0229187012;6.63079690933;9307;Nice;117;Aix-Marseille;4;ALPES-DE-HAUTE-PROVENCE;"""CC Alpes-Provence-Verdon """"Sources de lumi??re""""""";2;2
92;4116;Les M??es;Mairie des M??es;18 boulevard de la R??publique;4190;Les M??es;492340301;courrier@mairie-lesmees.fr;http://www.mairie-lesmees04.com;93;PROVENCE-ALPES-COTE D'AZUR;44.0303001404;5.97341012955;9302;Manosque;3778;Aix-Marseille;4;ALPES-DE-HAUTE-PROVENCE;CA Provence-Alpes-Agglom??ration;3;10
93;4118;Melve;Mairie de Melve;Sous Ville;4250;Melve;492683280;mairiedemelve04@wanadoo.fr;http://www.comcom-lamotte-turriers.com;93;PROVENCE-ALPES-COTE D'AZUR;44.3547096252;5.99043321609;9301;Digne-les-Bains;121;Aix-Marseille;4;ALPES-DE-HAUTE-PROVENCE;CC du Sisteronais-Bu??ch;4;13
94;4120;Meyronnes;Mairie de Val-d'Oronaye;Le Village;4530;Meyronnes;492843049;mairie-meyronnes@orange.fr;http://www.meyronnes.fr;93;PROVENCE-ALPES-COTE D'AZUR;44.4748573303;6.80057811737;9304;Gap;122;Aix-Marseille;4;ALPES-DE-HAUTE-PROVENCE;CC Vall??e de l'Ubaye - Serre-Pon??on;1;1
95;4121;M??zel;Mairie de M??zel;Place de l'????glise;4270;M??zel;492355387;mairie.mezel2@wanadoo.fr;http://www.mezel.fr;93;PROVENCE-ALPES-COTE D'AZUR;43.9973869324;6.19651889801;9301;Digne-les-Bains;677;Aix-Marseille;4;ALPES-DE-HAUTE-PROVENCE;CA Provence-Alpes-Agglom??ration;3;12
96;4122;Mirabeau;Mairie de Mirabeau;All??e de Jouvenine;4510;Mirabeau;492346184;mairie-mirabeau04@wanadoo.fr;http://www.mirabeau-04.fr;93;PROVENCE-ALPES-COTE D'AZUR;44.0635223389;6.08834314346;9301;Digne-les-Bains;521;Aix-Marseille;4;ALPES-DE-HAUTE-PROVENCE;CA Provence-Alpes-Agglom??ration;3;5
97;4123;Mison;Mairie de Mison;Les Armands;4200;Mison;492622117;contact@mison.fr;http://www.mairiedemison.fr;93;PROVENCE-ALPES-COTE D'AZUR;44.2670613;5.8590807;9301;Digne-les-Bains;1161;Aix-Marseille;4;ALPES-DE-HAUTE-PROVENCE;CC du Sisteronais-Bu??ch;4;14
98;4124;Montagnac-Montpezat;Mairie de Montagnac-Montpezat;Place de l'Horloge;4500;Montagnac-Montpezat;492775365;mairie@mairie-montagnac-montpezat.fr;http://www.mairie-montagnac-montpezat.fr;93;PROVENCE-ALPES-COTE D'AZUR;43.7796897888;6.09536790848;9302;Manosque;435;Aix-Marseille;4;ALPES-DE-HAUTE-PROVENCE;CA Durance-Lub??ron-Verdon Agglom??ration;4;15
99;4126;Montclar;Mairie de Montclar;B??timent communal;4140;Montclar;492309200;mairie@montclar.com;http://www.montclar.com;93;PROVENCE-ALPES-COTE D'AZUR;44.3974304199;6.33355379105;9301;Digne-les-Bains;426;Aix-Marseille;4;ALPES-DE-HAUTE-PROVENCE;CA Provence-Alpes-Agglom??ration;3;13
100;4127;Montfort;Mairie de Montfort;1 all??e des Tilleuls;4600;Montfort;492640290;mairie.montfort@wanadoo.fr;http://www.montfort-en-provence.fr;93;PROVENCE-ALPES-COTE D'AZUR;44.063834;5.971967;9301;Digne-les-Bains;335;Aix-Marseille;4;ALPES-DE-HAUTE-PROVENCE;CC Jabron-Lure-Van??on-Durance;4;3
101;4128;Montfuron;Mairie de Montfuron;Place de la Mairie;4110;Montfuron;492764165;mairiemontfuron@wanadoo.fr;http://www.cc-luberon-durance-verdon.frindex/action/page/id/302/title/montfuron;93;PROVENCE-ALPES-COTE D'AZUR;43.8357509;5.694528;9302;Manosque;210;Aix-Marseille;4;ALPES-DE-HAUTE-PROVENCE;CA Durance-Lub??ron-Verdon Agglom??ration;4;7
102;4129;Montjustin;Mairie de Montjustin;Le Village;4110;Montjustin;492764631;montjustin.mairie@wanadoo.fr;;93;PROVENCE-ALPES-COTE D'AZUR;43.847502;5.643371;9316;Cavaillon - Apt;59;Aix-Marseille;4;ALPES-DE-HAUTE-PROVENCE;CC Haute-Provence-Pays de Banon;4;11
103;4130;Montlaux;Mairie de Montlaux;Le Village;4230;Montlaux;492770985;mairie.montlaux@orange.fr;;93;PROVENCE-ALPES-COTE D'AZUR;43.9975395203;5.84110593796;9302;Manosque;197;Aix-Marseille;4;ALPES-DE-HAUTE-PROVENCE;CC Pays Forcalquier et Montagne de Lure;4;6
104;4132;Montsalier;Mairie de Montsalier;Le Village;4150;Montsalier;492733562;mairie.de.montsalier@wanadoo.fr;;93;PROVENCE-ALPES-COTE D'AZUR;44.0123672485;5.60914516449;9302;Manosque;140;Aix-Marseille;4;ALPES-DE-HAUTE-PROVENCE;CC Haute-Provence-Pays de Banon;4;11
105;4133;Moriez;Mairie de Moriez;Cour du Ch??teau;4170;Moriez;492890614;communemoriez@orange.fr;;93;PROVENCE-ALPES-COTE D'AZUR;43.961827;6.469849;9301;Digne-les-Bains;239;Aix-Marseille;4;ALPES-DE-HAUTE-PROVENCE;"""CC Alpes-Provence-Verdon """"Sources de lumi??re""""""";2;2
106;4134;La Motte-du-Caire;Mairie de La Motte-du-Caire;Place Pied-de-Ville;4250;La Motte-du-Caire;492683281;lamotteducaire@wanadoo.fr;http://www.lamotteducaire.com;93;PROVENCE-ALPES-COTE D'AZUR;44.3437995911;6.02766990662;9301;Digne-les-Bains;565;Aix-Marseille;4;ALPES-DE-HAUTE-PROVENCE;CC du Sisteronais-Bu??ch;4;13
107;4135;Moustiers-Sainte-Marie;Mairie de Moustiers-Sainte-Marie;Rue du Seigneur-de-la-Clue;4360;Moustiers-Sainte-Marie;492746619;mairie-moustiers@wanadoo.fr;http://www.ville-moustiers-sainte-marie.fr;93;PROVENCE-ALPES-COTE D'AZUR;43.8466835022;6.22184801102;9302;Manosque;725;Aix-Marseille;4;ALPES-DE-HAUTE-PROVENCE;CA Provence-Alpes-Agglom??ration;3;12
108;4136;La Mure-Argens;Mairie de La Mure-Argens;Le Village;4170;La Mure-Argens;492891072;mairielamureargens@gmail.com;;93;PROVENCE-ALPES-COTE D'AZUR;44.0952987671;6.55632019043;9301;Digne-les-Bains;333;Aix-Marseille;4;ALPES-DE-HAUTE-PROVENCE;"""CC Alpes-Provence-Verdon """"Sources de lumi??re""""""";2;2
109;4137;Nibles;Mairie de Nibles;Le Village;4250;Nibles;492621218;mairienibles@wanadoo.fr;;93;PROVENCE-ALPES-COTE D'AZUR;44.2816848755;6.01887989044;9301;Digne-les-Bains;42;Aix-Marseille;4;ALPES-DE-HAUTE-PROVENCE;CC du Sisteronais-Bu??ch;4;13
110;4138;Niozelles;Mairie de Niozelles;Le Village;4300;Niozelles;492750333;mairie-niozelles@wanadoo.fr;;93;PROVENCE-ALPES-COTE D'AZUR;43.936605;5.83956;9302;Manosque;277;Aix-Marseille;4;ALPES-DE-HAUTE-PROVENCE;CC Pays Forcalquier et Montagne de Lure;4;6
111;4139;Noyers-sur-Jabron;Mairie de Noyers-sur-Jabron;Le Village;4200;Noyers-sur-Jabron;492620308;mairie.noyers@orange.fr;;93;PROVENCE-ALPES-COTE D'AZUR;44.168575;5.828883;9301;Digne-les-Bains;531;Aix-Marseille;4;ALPES-DE-HAUTE-PROVENCE;CC Jabron-Lure-Van??on-Durance;4;14
112;4140;Les Omergues;Mairie des Omergues;Le Village;4200;Les Omergues;492620277;mairielesomergues@orange.fr;;93;PROVENCE-ALPES-COTE D'AZUR;44.1720085144;5.60908889771;9302;Manosque;133;Aix-Marseille;4;ALPES-DE-HAUTE-PROVENCE;CC Jabron-Lure-Van??on-Durance;4;14
113;4141;Ongles;Mairie d'Ongles;Le Village;4230;Ongles;492730622;mairie.ongles@wanadoo.fr;;93;PROVENCE-ALPES-COTE D'AZUR;44.0281982422;5.73311185837;9302;Manosque;381;Aix-Marseille;4;ALPES-DE-HAUTE-PROVENCE;CC Pays Forcalquier et Montagne de Lure;4;6
114;4142;Oppedette;Mairie d'Oppedette;Le Village;4110;Oppedette;492759313;mairieoppedette@wanadoo.fr;;93;PROVENCE-ALPES-COTE D'AZUR;43.9349937439;5.59056091309;9316;Cavaillon - Apt;53;Aix-Marseille;4;ALPES-DE-HAUTE-PROVENCE;CC Haute-Provence-Pays de Banon;4;11
115;4143;Oraison;Mairie d'Oraison;22 rue Paul-Jean;4700;Oraison;492707777;contact@mairie-oraison.fr;http://www.oraison.com;93;PROVENCE-ALPES-COTE D'AZUR;43.9177017212;5.91822004318;9302;Manosque;5955;Aix-Marseille;4;ALPES-DE-HAUTE-PROVENCE;CA Durance-Lub??ron-Verdon Agglom??ration;4;10
116;4144;La Palud-sur-Verdon;Mairie de La Palud-sur-Verdon;Le Ch??teau;4120;La Palud-sur-Verdon;492773802;mairielapaludsurverdon@wanadoo.fr;http://www.lapaludsurverdon.com;93;PROVENCE-ALPES-COTE D'AZUR;43.7769470215;6.33928585052;9301;Digne-les-Bains;352;Aix-Marseille;4;ALPES-DE-HAUTE-PROVENCE;"""CC Alpes-Provence-Verdon """"Sources de lumi??re""""""";2;12
117;4145;Peipin;Mairie de Peipin;4 rue des ????coles;4200;Peipin;492624417;mairie@peipin.fr;http://www.peipin.fr;93;PROVENCE-ALPES-COTE D'AZUR;44.1355321;5.9571477;9301;Digne-les-Bains;1499;Aix-Marseille;4;ALPES-DE-HAUTE-PROVENCE;CC Jabron-Lure-Van??on-Durance;4;14
118;4148;Peyroules;Mairie de Peyroules;28 rue de la Mairie;4120;Peyroules;492836552;mairie.peyroules@wanadoo.fr;http://www.peyroules.fr;93;PROVENCE-ALPES-COTE D'AZUR;43.8150859;6.642352;9305;Cannes - Antibes;249;Aix-Marseille;4;ALPES-DE-HAUTE-PROVENCE;"""CC Alpes-Provence-Verdon """"Sources de lumi??re""""""";2;2
119;4149;Peyruis;Mairie de Peyruis;Place de l'H??tel-de-Ville;4310;Peyruis;492332100;mairie@peyruis.fr;http://www.peyruis.fr;93;PROVENCE-ALPES-COTE D'AZUR;44.0272426;5.9371075;9302;Manosque;2907;Aix-Marseille;4;ALPES-DE-HAUTE-PROVENCE;CA Provence-Alpes-Agglom??ration;3;3
120;4150;Pi??gut;Mairie de Pi??gut;Rue Saint-Collomban;5130;Pi??gut;492541514;mairiedepiegut@orange.fr;http://www.mairie-piegut.fr;93;PROVENCE-ALPES-COTE D'AZUR;44.4547339;6.1284389;9304;Gap;190;Aix-Marseille;4;ALPES-DE-HAUTE-PROVENCE;CC Serre-Pon??on Val d'Avance;4;13
121;4151;Pierrerue;Mairie de Pierrerue;La Promenade;4300;Pierrerue;492751661;mairie.pierrerue@orange.fr;http://www.pierrerue.com;93;PROVENCE-ALPES-COTE D'AZUR;43.954875946;5.83408498764;9302;Manosque;505;Aix-Marseille;4;ALPES-DE-HAUTE-PROVENCE;CC Pays Forcalquier et Montagne de Lure;4;6
122;4152;Pierrevert;Mairie de Pierrevert;6 avenue Auguste-Bastide;4860;Pierrevert;492728687;info@mairie-pierrevert.fr;http://www.mairie-pierrevert.fr;93;PROVENCE-ALPES-COTE D'AZUR;43.8100013733;5.75051021576;9302;Manosque;3938;Aix-Marseille;4;ALPES-DE-HAUTE-PROVENCE;CA Durance-Lub??ron-Verdon Agglom??ration;4;7
123;4154;Pontis;Mairie de Pontis;L'????glise;5160;Pontis;492442694;mairiedepontis@wanadoo.fr;http://www.pontis.fr;93;PROVENCE-ALPES-COTE D'AZUR;44.5037994385;6.3576540947;9304;Gap;87;Aix-Marseille;4;ALPES-DE-HAUTE-PROVENCE;CC Serre-Pon??on;1;1
124;4155;Prads-Haute-Bl??one;Mairie de Prads-Haute-Bl??one;Le Village;4420;Prads-Haute-Bl??one;492349081;prads.mairie04@hotmail.fr;;93;PROVENCE-ALPES-COTE D'AZUR;44.2197265625;6.44176483154;9301;Digne-les-Bains;183;Aix-Marseille;4;ALPES-DE-HAUTE-PROVENCE;CA Provence-Alpes-Agglom??ration;3;13
125;4156;Puimichel;Mairie de Puimichel;1 place Delphine-de-Signe;4700;Puimichel;492786140;mairie@puimichel.fr;;93;PROVENCE-ALPES-COTE D'AZUR;43.974564;6.020715;9302;Manosque;248;Aix-Marseille;4;ALPES-DE-HAUTE-PROVENCE;CA Durance-Lub??ron-Verdon Agglom??ration;4;12
126;4157;Puimoisson;Mairie de Puimoisson;Place Saint-????loi;4410;Puimoisson;492745401;mairie.puimoisson@wanadoo.fr;http://puimoisson.jimdo.com;93;PROVENCE-ALPES-COTE D'AZUR;43.8357162476;6.13550901413;9302;Manosque;732;Aix-Marseille;4;ALPES-DE-HAUTE-PROVENCE;CA Durance-Lub??ron-Verdon Agglom??ration;4;12
127;4158;Quinson;Mairie de Quinson;Place de la Mairie;4500;Quinson;492744025;mairie.quinson@wanadoo.fr;http://www.quinson.fr;93;PROVENCE-ALPES-COTE D'AZUR;43.7022018433;6.03911018372;9302;Manosque;426;Aix-Marseille;4;ALPES-DE-HAUTE-PROVENCE;CA Durance-Lub??ron-Verdon Agglom??ration;4;15
128;4159;Redortiers;Mairie de Redortiers;Le Contadour;4150;Redortiers;492732757;mairie.redortiers@wanadoo.fr;;93;PROVENCE-ALPES-COTE D'AZUR;44.1043891907;5.61933612823;9302;Manosque;86;Aix-Marseille;4;ALPES-DE-HAUTE-PROVENCE;CC Haute-Provence-Pays de Banon;4;11
129;4160;Reillanne;Mairie de Reillanne;Cours Thierry-d'Argenlieu;4110;Reillanne;492764207;mairie.reillanne04@orange.fr;http://www.reillanne-en-luberon.fr;93;PROVENCE-ALPES-COTE D'AZUR;43.8795013428;5.66025018692;9302;Manosque;1712;Aix-Marseille;4;ALPES-DE-HAUTE-PROVENCE;CC Haute-Provence-Pays de Banon;4;11
130;4161;M??olans-Revel;Mairie de M??olans-Revel;La Fresqui??re;4340;M??olans-Revel;492810869;mairie.meolansrevel@wanadoo.fr;http://www.meolans-revel.fr;93;PROVENCE-ALPES-COTE D'AZUR;44.4015541077;6.51174879074;9304;Gap;347;Aix-Marseille;4;ALPES-DE-HAUTE-PROVENCE;CC Vall??e de l'Ubaye - Serre-Pon??on;1;1
131;4162;Revest-des-Brousses;Mairie de Revest-des-Brousses;La Place;4150;Revest-des-Brousses;492732858;mairie.revestdesbrousses@orange.fr;;93;PROVENCE-ALPES-COTE D'AZUR;43.9708786011;5.67157316208;9302;Manosque;274;Aix-Marseille;4;ALPES-DE-HAUTE-PROVENCE;CC Haute-Provence-Pays de Banon;4;11
132;4163;Revest-du-Bion;Mairie de Revest-du-Bion;Avenue Clemenceau;4150;Revest-du-Bion;492772226;commune.revestdubion@orange.fr;http://www.revestdubion.fr;93;PROVENCE-ALPES-COTE D'AZUR;44.0827674866;5.54798412323;9316;Cavaillon - Apt;567;Aix-Marseille;4;ALPES-DE-HAUTE-PROVENCE;CC Haute-Provence-Pays de Banon;4;11
133;4164;Revest-Saint-Martin;Mairie de Revest-Saint-Martin;Hameau Saint-Martin;4230;Revest-Saint-Martin;492758774;mairie-revest-saint-martin@orange.fr;;93;PROVENCE-ALPES-COTE D'AZUR;44.010938;5.826517;9302;Manosque;86;Aix-Marseille;4;ALPES-DE-HAUTE-PROVENCE;CC Pays Forcalquier et Montagne de Lure;4;6
134;4166;Riez;Mairie de Riez;All??e Louis-Gardiol;4500;Riez;492779900;mairie.riez@wanadoo.fr;http://www.ville-riez.fr;93;PROVENCE-ALPES-COTE D'AZUR;43.8186950684;6.09076690674;9302;Manosque;1882;Aix-Marseille;4;ALPES-DE-HAUTE-PROVENCE;CA Durance-Lub??ron-Verdon Agglom??ration;4;12
135;4167;La Robine-sur-Galabre;Mairie de La Robine-sur-Galabre;Le Forest;4000;La Robine-sur-Galabre;492312403;contact@larobinesurgalabre.fr;;93;PROVENCE-ALPES-COTE D'AZUR;44.170501709;6.21730613708;9301;Digne-les-Bains;305;Aix-Marseille;4;ALPES-DE-HAUTE-PROVENCE;CA Provence-Alpes-Agglom??ration;3;4
136;4169;La Rochegiron;Mairie de La Rochegiron;Le Village;4150;La Rochegiron;492733102;la-rochegiron-cne@wanadoo.fr;;93;PROVENCE-ALPES-COTE D'AZUR;44.0756072998;5.65518283844;9302;Manosque;103;Aix-Marseille;4;ALPES-DE-HAUTE-PROVENCE;CC Haute-Provence-Pays de Banon;4;11
137;4170;La Rochette;Mairie de La Rochette;18 rue de la Mairie;6260;La Rochette;493058480;larochette.mairie@wanadoo.fr;;93;PROVENCE-ALPES-COTE D'AZUR;43.9154547;6.8914245;9307;Nice;70;Aix-Marseille;4;ALPES-DE-HAUTE-PROVENCE;"""CC Alpes-Provence-Verdon """"Sources de lumi??re""""""";2;2
138;4171;Rougon;Mairie de Rougon;Place Isidore-Blanc;4120;Rougon;492836632;mairie.rougon@wanadoo.fr;http://www.rougon.fr;93;PROVENCE-ALPES-COTE D'AZUR;43.799253;6.402351;9301;Digne-les-Bains;110;Aix-Marseille;4;ALPES-DE-HAUTE-PROVENCE;"""CC Alpes-Provence-Verdon """"Sources de lumi??re""""""";2;2
139;4172;Roumoules;Mairie de Roumoules;34 rue Grande;4500;Roumoules;492778502;mairie-roumoules@wanadoo.fr;;93;PROVENCE-ALPES-COTE D'AZUR;43.8254013062;6.13077020645;9302;Manosque;764;Aix-Marseille;4;ALPES-DE-HAUTE-PROVENCE;CA Durance-Lub??ron-Verdon Agglom??ration;4;12
140;4173;Saint-Andr??-les-Alpes;Mairie de Saint-Andr??-les-Alpes;1 place Charles-Bron;4170;Saint-Andr??-les-Alpes;492890204;mairie.st-andre.les.alpes@wanadoo.fr;http://www.saint-andre-les-alpes.fr;93;PROVENCE-ALPES-COTE D'AZUR;43.9673106;6.5087678;9301;Digne-les-Bains;1029;Aix-Marseille;4;ALPES-DE-HAUTE-PROVENCE;"""CC Alpes-Provence-Verdon """"Sources de lumi??re""""""";2;2
141;4174;Saint-Beno??t;Mairie de Saint-Beno??t;Le Bourg;4240;Saint-Beno??t;492833290;saint-benoit.mairie@wanadoo.fr;http://www.mairiesaintbenoit.fr;93;PROVENCE-ALPES-COTE D'AZUR;43.968006134;6.72373819351;9307;Nice;150;Aix-Marseille;4;ALPES-DE-HAUTE-PROVENCE;"""CC Alpes-Provence-Verdon """"Sources de lumi??re""""""";2;2
142;4175;Sainte-Croix-? -Lauze;Mairie de Sainte-Croix-? -Lauze;Le Village;4110;Sainte-Croix-? -Lauze;492756413;ste-croix-alauze.cne@wanadoo.fr;;93;PROVENCE-ALPES-COTE D'AZUR;43.90858;5.616387;9302;Manosque;89;Aix-Marseille;4;ALPES-DE-HAUTE-PROVENCE;CC Haute-Provence-Pays de Banon;4;11
143;4176;Sainte-Croix-du-Verdon;Mairie de Sainte-Croix-du-Verdon;Le Village;4500;Sainte-Croix-du-Verdon;492778410;contact@saintecroixduverdon.fr;http://www.saintecroixduverdon.fr;93;PROVENCE-ALPES-COTE D'AZUR;43.7595329285;6.15182113647;9302;Manosque;123;Aix-Marseille;4;ALPES-DE-HAUTE-PROVENCE;CA Provence-Alpes-Agglom??ration;3;15
144;4177;Hautes-Duyes;Mairie de Hautes-Duyes;Le Village;4380;Hautes-Duyes;960133673;mairie.hautes.duyes@wanadoo.fr;;93;PROVENCE-ALPES-COTE D'AZUR;44.191342;6.170232;9301;Digne-les-Bains;43;Aix-Marseille;4;ALPES-DE-HAUTE-PROVENCE;CA Provence-Alpes-Agglom??ration;3;4
145;4178;Saint-????tienne-les-Orgues;Mairie de Saint-????tienne-les-Orgues;Place Adrien-Gastinel;4230;Saint-????tienne-les-Orgues;492730200;mairiedesaintetiennelesorgues@wanadoo.fr;http://www.saint-etienne-les-orgues.fr;93;PROVENCE-ALPES-COTE D'AZUR;44.0453987122;5.78011989594;9302;Manosque;1330;Aix-Marseille;4;ALPES-DE-HAUTE-PROVENCE;CC Pays Forcalquier et Montagne de Lure;4;6
146;4179;Saint-Geniez;Mairie de Saint-Geniez;Le Village;4200;Saint-Geniez;492626415;mairie-st-geniez@orange.fr;http://www.saint-geniez.fr;93;PROVENCE-ALPES-COTE D'AZUR;44.245562;6.05248;9301;Digne-les-Bains;98;Aix-Marseille;4;ALPES-DE-HAUTE-PROVENCE;CC du Sisteronais-Bu??ch;4;14
147;4180;Saint-Jacques;Mairie de Saint-Jacques;Le Village;4330;Saint-Jacques;492342487;mairiesaintjacques@orange.fr;;93;PROVENCE-ALPES-COTE D'AZUR;43.9691581726;6.37529420853;9301;Digne-les-Bains;82;Aix-Marseille;4;ALPES-DE-HAUTE-PROVENCE;"""CC Alpes-Provence-Verdon """"Sources de lumi??re""""""";2;12
148;4181;Saint-Jeannet;Mairie de Saint-Jeannet;Les Contes;4270;Saint-Jeannet;492344300;commune.saint-jeannet@orange.fr;;93;PROVENCE-ALPES-COTE D'AZUR;43.9634361267;6.12855815887;9301;Digne-les-Bains;55;Aix-Marseille;4;ALPES-DE-HAUTE-PROVENCE;CA Provence-Alpes-Agglom??ration;3;12
149;4182;Saint-Julien-d'Asse;Mairie de Saint-Julien-d'Asse;Le Village;4270;Saint-Julien-d'Asse;492344380;stjuliendasse@wanadoo.fr;;93;PROVENCE-ALPES-COTE D'AZUR;43.917384;6.092072;9301;Digne-les-Bains;214;Aix-Marseille;4;ALPES-DE-HAUTE-PROVENCE;CA Provence-Alpes-Agglom??ration;3;12
150;4183;Saint-Julien-du-Verdon;Mairie de Saint-Julien-du-Verdon;Le Village;4170;Saint-Julien-du-Verdon;492890582;mairie.stjulienduverdon@wanadoo.fr;http://www.saint-julien-du-verdon.com;93;PROVENCE-ALPES-COTE D'AZUR;43.9141273499;6.54164600372;9301;Digne-les-Bains;147;Aix-Marseille;4;ALPES-DE-HAUTE-PROVENCE;"""CC Alpes-Provence-Verdon """"Sources de lumi??re""""""";2;2
151;4184;Saint-Jurs;Mairie de Saint-Jurs;Rue de la Forge;4410;Saint-Jurs;492744825;mairie.saint-jurs@orange.fr;;93;PROVENCE-ALPES-COTE D'AZUR;43.898109436;6.19984722137;9302;Manosque;141;Aix-Marseille;4;ALPES-DE-HAUTE-PROVENCE;CA Provence-Alpes-Agglom??ration;3;12
152;4186;Saint-Laurent-du-Verdon;Mairie de Saint-Laurent-du-Verdon;37 rue de la Fontaine;4500;Saint-Laurent-du-Verdon;492745747;mairie-st-laurent-du-verdon@wanadoo.fr;;93;PROVENCE-ALPES-COTE D'AZUR;43.7245063782;6.06821393967;9302;Manosque;101;Aix-Marseille;4;ALPES-DE-HAUTE-PROVENCE;CA Durance-Lub??ron-Verdon Agglom??ration;4;15
153;4187;Saint-Lions;Mairie de Saint-Lions;Le Village;4330;Saint-Lions;492342425;mairie.saintlions@orange.fr;;93;PROVENCE-ALPES-COTE D'AZUR;43.9853172302;6.39934110641;9301;Digne-les-Bains;50;Aix-Marseille;4;ALPES-DE-HAUTE-PROVENCE;"""CC Alpes-Provence-Verdon """"Sources de lumi??re""""""";2;12
154;4188;Saint-Maime;Mairie de Saint-Maime;Le Village;4300;Saint-Maime;492795815;mairie.saintmaime@orange.fr;http://www.saint-maime.fr;93;PROVENCE-ALPES-COTE D'AZUR;43.903011322;5.79525995255;9302;Manosque;868;Aix-Marseille;4;ALPES-DE-HAUTE-PROVENCE;CC Haute-Provence-Pays de Banon;4;11
155;4189;Saint-Martin-de-Br??mes;Mairie de Saint-Martin-de-Br??mes;Place de la Lib??ration;4800;Saint-Martin-de-Br??mes;492780202;mairie-smdb@wanadoo.fr;http://www.saint-martin-de-bromes.fr;93;PROVENCE-ALPES-COTE D'AZUR;43.7702522278;5.94462203979;9302;Manosque;602;Aix-Marseille;4;ALPES-DE-HAUTE-PROVENCE;CA Durance-Lub??ron-Verdon Agglom??ration;4;15
156;4190;Saint-Martin-les-Eaux;Mairie de Saint-Martin-les-Eaux;Le Ch??teau;4300;Saint-Martin-les-Eaux;492722457;mairie.saintmartinleseaux@gmail.com;;93;PROVENCE-ALPES-COTE D'AZUR;43.8750991821;5.73338985443;9302;Manosque;117;Aix-Marseille;4;ALPES-DE-HAUTE-PROVENCE;CC Haute-Provence-Pays de Banon;4;8
157;4191;Saint-Martin-l??s-Seyne;Mairie de Saint-Martin-l??s-Seyne;Le Village;4140;Saint-Martin-l??s-Seyne;492353363;;;93;PROVENCE-ALPES-COTE D'AZUR;44.385881;6.25706;9301;Digne-les-Bains;16;Aix-Marseille;4;ALPES-DE-HAUTE-PROVENCE;CA Provence-Alpes-Agglom??ration;3;13
158;4192;Saint-Michel-l'Observatoire;Mairie de Saint-Michel-l'Observatoire;Place du Serre;4870;Saint-Michel-l'Observatoire;492766004;mairie.stmichelobs@orange.fr;http://www.saintmichellobservatoire.com;93;PROVENCE-ALPES-COTE D'AZUR;43.9092139;5.7162816;9302;Manosque;1263;Aix-Marseille;4;ALPES-DE-HAUTE-PROVENCE;CC Haute-Provence-Pays de Banon;4;11
159;4193;Saint-Paul-sur-Ubaye;Mairie de Saint-Paul-sur-Ubaye;Le Village;4530;Saint-Paul-sur-Ubaye;492843109;mairie.stpaul.ubaye@orange.fr;http://www.mairie-saint-paul-ubaye.com;93;PROVENCE-ALPES-COTE D'AZUR;44.5148010254;6.74991989136;9304;Gap;193;Aix-Marseille;4;ALPES-DE-HAUTE-PROVENCE;CC Vall??e de l'Ubaye - Serre-Pon??on;1;1
160;4194;Saint-Pierre;Mairie de Saint-Pierre;Salle Polyvalente;6260;Saint-Pierre;493058017;mairiedesaintpierre@wanadoo.fr;;93;PROVENCE-ALPES-COTE D'AZUR;43.913052;6.923962;9307;Nice;98;Aix-Marseille;4;ALPES-DE-HAUTE-PROVENCE;"""CC Alpes-Provence-Verdon """"Sources de lumi??re""""""";2;2
161;4195;Saint-Pons;Mairie de Saint-Pons;Le Village;4400;Saint-Pons;492810925;mairie-saintpons-ubaye@orange.fr;http://www.saintpons-ubaye.fr;93;PROVENCE-ALPES-COTE D'AZUR;44.3922042847;6.62841176987;9304;Gap;638;Aix-Marseille;4;ALPES-DE-HAUTE-PROVENCE;CC Vall??e de l'Ubaye - Serre-Pon??on;1;1
162;4197;Sainte-Tulle;Mairie de Sainte-Tulle;Avenue de la R??publique;4220;Sainte-Tulle;492782006;elus@mairie-saintetulle.fr;http://www.ville-sainte-tulle.fr;93;PROVENCE-ALPES-COTE D'AZUR;43.7863006592;5.76748991013;9302;Manosque;3486;Aix-Marseille;4;ALPES-DE-HAUTE-PROVENCE;CA Durance-Lub??ron-Verdon Agglom??ration;4;9
163;4199;Saint-Vincent-sur-Jabron;Mairie de Saint-Vincent-sur-Jabron;Le Village;4200;Saint-Vincent-sur-Jabron;492620056;mairie.stvincentsurjabron@wanadoo.fr;;93;PROVENCE-ALPES-COTE D'AZUR;44.1706008911;5.74211978912;9301;Digne-les-Bains;202;Aix-Marseille;4;ALPES-DE-HAUTE-PROVENCE;CC Jabron-Lure-Van??on-Durance;4;14
164;4200;Salignac;Mairie de Salignac;Le Village;4290;Salignac;492613128;salignachp@orange.fr;http://www.salignac04.fr;93;PROVENCE-ALPES-COTE D'AZUR;44.1573566;5.984447;9301;Digne-les-Bains;655;Aix-Marseille;4;ALPES-DE-HAUTE-PROVENCE;CC Jabron-Lure-Van??on-Durance;4;14
165;4201;Saumane;Mairie de Saumane;Place de la R??publique;4150;Saumane;492733822;mairie-de-saumane@wanadoo.fr;;93;PROVENCE-ALPES-COTE D'AZUR;44.0920829773;5.69087219238;9302;Manosque;121;Aix-Marseille;4;ALPES-DE-HAUTE-PROVENCE;CC Haute-Provence-Pays de Banon;4;11
166;4202;Sausses;Mairie de Sausses;Place Saint-Joseph;4320;Sausses;493054556;secretaire@mairie-de-sausses.org;;93;PROVENCE-ALPES-COTE D'AZUR;44.0082855225;6.7808880806;9307;Nice;129;Aix-Marseille;4;ALPES-DE-HAUTE-PROVENCE;"""CC Alpes-Provence-Verdon """"Sources de lumi??re""""""";2;2
167;4203;Selonnet;Mairie de Selonnet;Place du Village;4140;Selonnet;492350638;accueil@selonnet.fr;http://www.selonnet.fr;93;PROVENCE-ALPES-COTE D'AZUR;44.371093;6.312353;9301;Digne-les-Bains;473;Aix-Marseille;4;ALPES-DE-HAUTE-PROVENCE;CA Provence-Alpes-Agglom??ration;3;13
168;4204;Senez;Mairie de Senez;Le Village;4330;Senez;492342104;mairie@senez.fr;;93;PROVENCE-ALPES-COTE D'AZUR;43.9141235352;6.40624904633;9301;Digne-les-Bains;171;Aix-Marseille;4;ALPES-DE-HAUTE-PROVENCE;"""CC Alpes-Provence-Verdon """"Sources de lumi??re""""""";2;12
169;4205;Seyne-les-Alpes;Mairie de Seyne-les-Alpes;Grande rue;4140;Seyne-les-Alpes;492350042;mairie@seynelesalpes.fr;http://www.seynelesalpes.fr;93;PROVENCE-ALPES-COTE D'AZUR;44.3511009216;6.35526990891;9301;Digne-les-Bains;1388;Aix-Marseille;4;ALPES-DE-HAUTE-PROVENCE;CA Provence-Alpes-Agglom??ration;3;13
170;4206;Sigonce;Mairie de Sigonce;Place de la Mairie;4300;Sigonce;492750396;mairie.sigonce@wanadoo.fr;http://www.sigonce.fr;93;PROVENCE-ALPES-COTE D'AZUR;43.997001;5.840755;9302;Manosque;439;Aix-Marseille;4;ALPES-DE-HAUTE-PROVENCE;CC Pays Forcalquier et Montagne de Lure;4;6
171;4207;Sigoyer;Mairie de Sigoyer;Le Village;4200;Sigoyer;492621533;mairiesigoyer04@orange.fr;http://www.mairie-sigoyer04.fr;93;PROVENCE-ALPES-COTE D'AZUR;44.3186836243;5.95877695084;9301;Digne-les-Bains;109;Aix-Marseille;4;ALPES-DE-HAUTE-PROVENCE;CC du Sisteronais-Bu??ch;4;13
172;4208;Simiane-la-Rotonde;Mairie de Simiane-la-Rotonde;Le Haut-Village;4150;Simiane-la-Rotonde;492759140;communedesimiane@wanadoo.fr;http://www.simiane-la-rotonde.fr;93;PROVENCE-ALPES-COTE D'AZUR;43.9807014465;5.56187009811;9316;Cavaillon - Apt;612;Aix-Marseille;4;ALPES-DE-HAUTE-PROVENCE;CC Haute-Provence-Pays de Banon;4;11
173;4209;Sisteron;Mairie de Sisteron;Place de la R??publique;4200;Sisteron;492610037;mairie@sisteron.fr;http://www.sisteron.fr;93;PROVENCE-ALPES-COTE D'AZUR;44.1949005127;5.94269990921;9301;Digne-les-Bains;7697;Aix-Marseille;4;ALPES-DE-HAUTE-PROVENCE;CC du Sisteronais-Bu??ch;4;14
174;4210;Soleilhas;Mairie de Soleilhas;Rue Clastre;4120;Soleilhas;493604287;mairie-de-soleilhas@alsatis.net;http://www.soleilhas.fr;93;PROVENCE-ALPES-COTE D'AZUR;43.8569908142;6.64974308014;9307;Nice;104;Aix-Marseille;4;ALPES-DE-HAUTE-PROVENCE;"""CC Alpes-Provence-Verdon """"Sources de lumi??re""""""";2;2
175;4211;Sourribes;Mairie de Sourribes;Place Albert-Burle;4290;Sourribes;492643024;mairie.sourribes@wanadoo.fr;;93;PROVENCE-ALPES-COTE D'AZUR;44.1474876404;6.01553297043;9301;Digne-les-Bains;181;Aix-Marseille;4;ALPES-DE-HAUTE-PROVENCE;CC Jabron-Lure-Van??on-Durance;4;14
176;4214;Tartonne;Mairie de Tartonne;Le Village;4330;Tartonne;492342179;tartonne-mairie@tartonne.fr;;93;PROVENCE-ALPES-COTE D'AZUR;44.070548;6.388269;9301;Digne-les-Bains;136;Aix-Marseille;4;ALPES-DE-HAUTE-PROVENCE;"""CC Alpes-Provence-Verdon """"Sources de lumi??re""""""";2;12
177;4216;Th??ze;Mairie de Th??ze;Chemin de l'????clause;4200;Th??ze;492621294;mairie.theze@wanadoo.fr;http://www.comcom-lamotte-turriers.com;93;PROVENCE-ALPES-COTE D'AZUR;44.320061;5.924602;9301;Digne-les-Bains;240;Aix-Marseille;4;ALPES-DE-HAUTE-PROVENCE;CC du Sisteronais-Bu??ch;4;13
178;4217;Thoard;Mairie de Thoard;Boulevard Paul-Avignon;4380;Thoard;492346374;mairie.thoard@wanadoo.fr;http://www.thoard.fr;93;PROVENCE-ALPES-COTE D'AZUR;44.1503753662;6.14889287949;9301;Digne-les-Bains;741;Aix-Marseille;4;ALPES-DE-HAUTE-PROVENCE;CA Provence-Alpes-Agglom??ration;3;4
179;4218;Thorame-Basse;Mairie de Thorame-Basse;Le Village;4170;Thorame-Basse;492839297;mairie.thoramebasse@orange.fr;http://www.thorame-basse.fr;93;PROVENCE-ALPES-COTE D'AZUR;44.0908203125;6.49931383133;9301;Digne-les-Bains;229;Aix-Marseille;4;ALPES-DE-HAUTE-PROVENCE;"""CC Alpes-Provence-Verdon """"Sources de lumi??re""""""";2;2
180;4219;Thorame-Haute;Mairie de Thorame-Haute;Le Village;4170;Thorame-Haute;492839086;mairie.thoramehaute@orange.fr;http://www.thorame-haute.fr;93;PROVENCE-ALPES-COTE D'AZUR;44.0971488953;6.55540323257;9301;Digne-les-Bains;246;Aix-Marseille;4;ALPES-DE-HAUTE-PROVENCE;"""CC Alpes-Provence-Verdon """"Sources de lumi??re""""""";2;2
181;4220;Les Thuiles;Mairie des Thuiles;Place Fernand-Gilly;4400;Les Thuiles;492811003;mairie.lesthuiles@wanadoo.fr;;93;PROVENCE-ALPES-COTE D'AZUR;44.3934020996;6.57057189941;9304;Gap;412;Aix-Marseille;4;ALPES-DE-HAUTE-PROVENCE;CC Vall??e de l'Ubaye - Serre-Pon??on;1;1
182;4222;Turriers;Mairie de Turriers;Place Pierre-Franco;4250;Turriers;492551128;mairie.turriers04@wanadoo.fr;http://www.turriers.com;93;PROVENCE-ALPES-COTE D'AZUR;44.4014129639;6.1684718132;9304;Gap;327;Aix-Marseille;4;ALPES-DE-HAUTE-PROVENCE;CC du Sisteronais-Bu??ch;4;13
183;4224;Ubraye;Mairie d'Ubraye;Le Village;4240;Ubraye;492832828;mairie-ubraye@orange.fr;http://ubraye.free.fr;93;PROVENCE-ALPES-COTE D'AZUR;43.9083518982;6.69632482529;9307;Nice;93;Aix-Marseille;4;ALPES-DE-HAUTE-PROVENCE;"""CC Alpes-Provence-Verdon """"Sources de lumi??re""""""";2;2
184;4226;Uvernet-Fours;Mairie d'Uvernet-Fours;Place de la Mairie;4400;Uvernet-Fours;492808000;mairie.uvernet-fours@orange.fr;http://www.uvernet-fours.fr;93;PROVENCE-ALPES-COTE D'AZUR;44.3591346741;6.62754583359;9304;Gap;600;Aix-Marseille;4;ALPES-DE-HAUTE-PROVENCE;CC Vall??e de l'Ubaye - Serre-Pon??on;1;1
185;4227;Vach??res;Mairie de Vach??res;Place de la Mairie;4110;Vach??res;492756215;mairievach@wanadoo.fr;http://www.mairie-vacheres.fr;93;PROVENCE-ALPES-COTE D'AZUR;43.9311099;5.637707;9302;Manosque;290;Aix-Marseille;4;ALPES-DE-HAUTE-PROVENCE;CC Haute-Provence-Pays de Banon;4;11
186;4228;Valavoire;Mairie de Valavoire;Le Village;4250;Valavoire;964266250;mairie-de-valavoire@wanadoo.fr;;93;PROVENCE-ALPES-COTE D'AZUR;44.27908;6.066376;9301;Digne-les-Bains;40;Aix-Marseille;4;ALPES-DE-HAUTE-PROVENCE;CC du Sisteronais-Bu??ch;4;13
187;4229;Valbelle;Mairie de Valbelle;Le Village;4200;Valbelle;492628659;mairiedevalbelle@wanadoo.fr;http://www.jabrondelure.fr;93;PROVENCE-ALPES-COTE D'AZUR;44.1509895325;5.87633991241;9301;Digne-les-Bains;285;Aix-Marseille;4;ALPES-DE-HAUTE-PROVENCE;CC Jabron-Lure-Van??on-Durance;4;14
188;4230;Valensole;Mairie de Valensole;Place Fr??d??ric-Mistral;4210;Valensole;492748013;mairie.valensole@wanadoo.fr;http://www.valensole.fr;93;PROVENCE-ALPES-COTE D'AZUR;43.837600708;5.98710012436;9302;Manosque;3263;Aix-Marseille;4;ALPES-DE-HAUTE-PROVENCE;CA Durance-Lub??ron-Verdon Agglom??ration;4;15
189;4231;Valernes;Mairie de Valernes;Le Village;4200;Valernes;492621646;mairie-de-valernes@orange.fr;;93;PROVENCE-ALPES-COTE D'AZUR;44.2616920471;5.95892000198;9301;Digne-les-Bains;256;Aix-Marseille;4;ALPES-DE-HAUTE-PROVENCE;CC du Sisteronais-Bu??ch;4;13
190;4233;Vaumeilh;Mairie de Vaumeilh;Le Village;4200;Vaumeilh;492621006;mairie.vaumeilh@wanadoo.fr;;93;PROVENCE-ALPES-COTE D'AZUR;44.288618;5.95779;9301;Digne-les-Bains;271;Aix-Marseille;4;ALPES-DE-HAUTE-PROVENCE;CC du Sisteronais-Bu??ch;4;13
191;4234;Venterol;Mairie de Venterol;Le Village;5130;Venterol;492541212;mairie.venterol@wanadoo.fr;;93;PROVENCE-ALPES-COTE D'AZUR;44.4447097778;6.09953308105;9304;Gap;243;Aix-Marseille;4;ALPES-DE-HAUTE-PROVENCE;CC Serre-Pon??on Val d'Avance;4;13
192;4235;Verdaches;Mairie de Verdaches;Le Village;4140;Verdaches;492351099;mairie.de.verdaches@orange.fr;;93;PROVENCE-ALPES-COTE D'AZUR;44.2631835938;6.34111213684;9301;Digne-les-Bains;60;Aix-Marseille;4;ALPES-DE-HAUTE-PROVENCE;CA Provence-Alpes-Agglom??ration;3;13
193;4236;Vergons;Mairie de Vergons;Le Village;4170;Vergons;492890019;;;93;PROVENCE-ALPES-COTE D'AZUR;43.9133682251;6.58890676498;9301;Digne-les-Bains;111;Aix-Marseille;4;ALPES-DE-HAUTE-PROVENCE;"""CC Alpes-Provence-Verdon """"Sources de lumi??re""""""";2;2
194;4237;Le Vernet;Mairie du Vernet;Le Village;4140;Le Vernet;492350284;le-vernet.mairie@wanadoo.fr;http://www.mairie-le-vernet.info;93;PROVENCE-ALPES-COTE D'AZUR;44.2774200439;6.38946294785;9301;Digne-les-Bains;132;Aix-Marseille;4;ALPES-DE-HAUTE-PROVENCE;CA Provence-Alpes-Agglom??ration;3;13
195;4240;Villars-Colmars;Mairie de Villars-Colmars;Quartier La Foulerie;4370;Villars-Colmars;492834301;mairievillarscolmars@wanadoo.fr;http://www.villars-colmars.fr;93;PROVENCE-ALPES-COTE D'AZUR;44.1665802002;6.60637187958;9301;Digne-les-Bains;250;Aix-Marseille;4;ALPES-DE-HAUTE-PROVENCE;"""CC Alpes-Provence-Verdon """"Sources de lumi??re""""""";2;2
196;4241;Villemus;Mairie de Villemus;Rue de la Mairie;4110;Villemus;492764472;mairie.villemus@wanadoo.fr;;93;PROVENCE-ALPES-COTE D'AZUR;43.8592758179;5.70096588135;9302;Manosque;194;Aix-Marseille;4;ALPES-DE-HAUTE-PROVENCE;CC Haute-Provence-Pays de Banon;4;11
197;4242;Villeneuve;Mairie de Villeneuve;Place Aim??-Aillaud;4180;Villeneuve;492784231;elus@villeneuve.fr;http://www.mairie-villeneuve.fr;93;PROVENCE-ALPES-COTE D'AZUR;43.8944436;5.8611957;9302;Manosque;4271;Aix-Marseille;4;ALPES-DE-HAUTE-PROVENCE;CA Durance-Lub??ron-Verdon Agglom??ration;4;10
198;4244;Volonne;Mairie de Volonne;1 place Charles-de-Gaulle;4290;Volonne;492640757;mairie.volonne@mairie-volonne.eu;http://www.mairie-volonne.fr;93;PROVENCE-ALPES-COTE D'AZUR;44.1111023;6.0136923;9301;Digne-les-Bains;1687;Aix-Marseille;4;ALPES-DE-HAUTE-PROVENCE;CA Provence-Alpes-Agglom??ration;3;3
199;4245;Volx;Mairie de Volx;Place des F??libres;4130;Volx;492701800;accueil.volx@orange.fr;;93;PROVENCE-ALPES-COTE D'AZUR;43.8769989014;5.84197998047;9302;Manosque;3246;Aix-Marseille;4;ALPES-DE-HAUTE-PROVENCE;CA Durance-Lub??ron-Verdon Agglom??ration;4;8
202;5004;Ancelle;Mairie d'Ancelle;Le Village;5260;Ancelle;492508305;mairie@ancelle.fr;http://www.ancelle.fr;93;PROVENCE-ALPES-COTE D'AZUR;44.6238861084;6.20542001724;9304;Gap;931;Aix-Marseille;5;HAUTES-ALPES;CC Champsaur-Valgaudemar;2;12
205;5008;Aspremont;Mairie d'Aspremont;Route d??partementale 1075;5140;Aspremont;492586427;aspremont@wanadoo.fr;http://www.aspremont05.fr;93;PROVENCE-ALPES-COTE D'AZUR;44.4924507141;5.7280049324;9304;Gap;362;Aix-Marseille;5;HAUTES-ALPES;CC Bu??ch-D??voluy;2;13
206;5009;Aspres-l??s-Corps;Mairie d'Aspres-les-Corps;Le Faux;5800;Aspres-l??s-Corps;492552067;mairie.aspres-les-corps@wanadoo.fr;;93;PROVENCE-ALPES-COTE D'AZUR;44.8016662598;5.98105812073;9304;Gap;107;Aix-Marseille;5;HAUTES-ALPES;CC Champsaur-Valgaudemar;2;12
207;5010;Aspres-sur-Bu??ch;Mairie d'Aspres-sur-Bu??ch;Grand'rue;5140;Aspres-sur-Bu??ch;492586034;mairie.aspres-sur-buech@wanadoo.fr;http://www.mairie-aspres-sur-buech.fr;93;PROVENCE-ALPES-COTE D'AZUR;44.5220985413;5.75262022018;9304;Gap;831;Aix-Marseille;5;HAUTES-ALPES;CC Bu??ch-D??voluy;2;13
208;5011;Avan??on;Mairie d'Avan??on;Le Village;5230;Avan??on;492503014;mairieavancon@wanadoo.fr;http://avancon.valleedelavance.com;93;PROVENCE-ALPES-COTE D'AZUR;44.525534;6.185435;9304;Gap;413;Aix-Marseille;5;HAUTES-ALPES;CC Serre-Pon??on Val d'Avance;2;14
209;5012;Baratier;Mairie de Baratier;Place du Village;5200;Baratier;492432586;mairie.baratier@wanadoo.fr;http://www.baratier.net;93;PROVENCE-ALPES-COTE D'AZUR;44.538643;6.4957035;9304;Gap;613;Aix-Marseille;5;HAUTES-ALPES;CC Serre-Pon??on;2;5
210;5013;Barcillonnette;Mairie de Barcillonnette;Le Village;5110;Barcillonnette;492542580;mairie.barci05@gmail.com;http://www.barcillonnette.eu;93;PROVENCE-ALPES-COTE D'AZUR;44.4350852966;5.91923713684;9304;Gap;141;Aix-Marseille;5;HAUTES-ALPES;CA Gap-Tallard-Durance;2;14
211;5014;Barret-sur-M??ouge;Mairie de Barret-sur-M??ouge;Le Village;5300;Barret-sur-M??ouge;492651093;mairie.barretsurmeouge@wanadoo.fr;;93;PROVENCE-ALPES-COTE D'AZUR;44.2615013123;5.73504018784;9301;Digne-les-Bains;223;Aix-Marseille;5;HAUTES-ALPES;CC du Sisteronais-Bu??ch;2;11
212;5016;La B??tie-Montsal??on;Mairie de La B??tie-Montsal??on;Le Village;5700;La B??tie-Montsal??on;492571510;mairie.labatie-montsaleon@orange.fr;;93;PROVENCE-ALPES-COTE D'AZUR;44.4558448792;5.75111818314;9304;Gap;255;Aix-Marseille;5;HAUTES-ALPES;CC du Sisteronais-Bu??ch;2;13
213;5017;La B??tie-Neuve;Mairie de La B??tie-Neuve;32 place de la Mairie;5230;La B??tie-Neuve;492503223;commune.de.la.batie.neuve@wanadoo.fr;http://www.commune-la-batie-neuve.fr;93;PROVENCE-ALPES-COTE D'AZUR;44.5655708313;6.195707798;9304;Gap;2585;Aix-Marseille;5;HAUTES-ALPES;CC Serre-Pon??on Val d'Avance;2;4
214;5018;La B??tie-Vieille;Mairie de La B??tie-Vieille;Le Village;5000;La B??tie-Vieille;492514973;mairie.labatie-vieille@wanadoo.fr;http://la-batie-vieille.valleedelavance.com;93;PROVENCE-ALPES-COTE D'AZUR;44.5532226562;6.1632027626;9304;Gap;354;Aix-Marseille;5;HAUTES-ALPES;CC Serre-Pon??on Val d'Avance;2;14
215;5019;La Beaume;Mairie de La Beaume;Le Village;5140;La Beaume;492586561;la-beaume@wanadoo.fr;http://labeaume-05.fr;93;PROVENCE-ALPES-COTE D'AZUR;44.5539741516;5.63649511337;9304;Gap;157;Aix-Marseille;5;HAUTES-ALPES;CC Bu??ch-D??voluy;2;13
216;5021;Le Bersac;Mairie du Bersac;L'Ubac;5700;Le Bersac;492670806;mairie@lebersac.fr;http://www.lebersac.fr;93;PROVENCE-ALPES-COTE D'AZUR;44.4118629;5.750465;9304;Gap;148;Aix-Marseille;5;HAUTES-ALPES;CC du Sisteronais-Bu??ch;2;13
217;5022;Br??ziers;Mairie de Br??ziers;Le Village;5190;Br??ziers;492551810;mairie.breziers392@orange.fr;;93;PROVENCE-ALPES-COTE D'AZUR;44.4275283813;6.19955015182;9304;Gap;233;Aix-Marseille;5;HAUTES-ALPES;CC Serre-Pon??on Val d'Avance;2;4
219;5024;Valdoule;Mairie de Bruis;Le Village;5150;Bruis;492660309;mairie.bruis@orange.fr;;93;PROVENCE-ALPES-COTE D'AZUR;44.4675559998;5.51379203796;9304;Gap;225;Aix-Marseille;5;HAUTES-ALPES;CC du Sisteronais-Bu??ch;2;13
220;5025;Buissard;Mairie de Buissard;Les Rissents;5500;Buissard;492504228;mairie.buissard05@orange.fr;;93;PROVENCE-ALPES-COTE D'AZUR;44.6571273804;6.14544677734;9304;Gap;215;Aix-Marseille;5;HAUTES-ALPES;CC Champsaur-Valgaudemar;2;12
223;5028;Chabestan;Mairie de Chabestan;Le Village;5400;Chabestan;492572677;mairie.chabestan@wanadoo.fr;;93;PROVENCE-ALPES-COTE D'AZUR;44.4780693054;5.78297901154;9304;Gap;133;Aix-Marseille;5;HAUTES-ALPES;CC Bu??ch-D??voluy;2;13
224;5029;Chabottes;Mairie de Chabottes;Route des ????crins-la-Haute-Plaine;5260;Chabottes;492504070;mairiechabottes@wanadoo.fr;;93;PROVENCE-ALPES-COTE D'AZUR;44.6551742554;6.17610406876;9304;Gap;848;Aix-Marseille;5;HAUTES-ALPES;CC Champsaur-Valgaudemar;2;12
226;5032;Champol??on;Mairie de Champol??on;Les Borels;5260;Champol??on;492559032;mairie.champoleon05@orange.fr;;93;PROVENCE-ALPES-COTE D'AZUR;44.7206115723;6.25925111771;9304;Gap;143;Aix-Marseille;5;HAUTES-ALPES;CC Champsaur-Valgaudemar;2;12
227;5033;Chanousse;Mairie de Chanousse;Le Village;5700;Chanousse;492662159;mairiedechanousse@orange.fr;;93;PROVENCE-ALPES-COTE D'AZUR;44.356016;5.656797;9301;Digne-les-Bains;39;Aix-Marseille;5;HAUTES-ALPES;CC du Sisteronais-Bu??ch;2;13
228;5035;Ch??teauneuf-d'Oze;Mairie de Ch??teauneuf-d'Oze;Le Village;5400;Ch??teauneuf-d'Oze;492571189;mairie.chateauneufdoze.1@wanadoo.fr;;93;PROVENCE-ALPES-COTE D'AZUR;44.5120353699;5.86455392838;9304;Gap;31;Aix-Marseille;5;HAUTES-ALPES;CC Bu??ch-D??voluy;2;15
229;5036;Ch??teauroux-les-Alpes;Mairie de Ch??teauroux-les-Alpes;Les Aubergeries;5380;Ch??teauroux-les-Alpes;492432204;mairie.05380@wanadoo.fr;http://www.chateauroux-les-alpes.com;93;PROVENCE-ALPES-COTE D'AZUR;44.6138687134;6.52092981339;9304;Gap;1229;Aix-Marseille;5;HAUTES-ALPES;CC Serre-Pon??on;2;5
230;5037;Ch??teauvieux;Mairie de Ch??teauvieux;Les Rougiers;5000;Ch??teauvieux;492541213;mairie.chateauvieux05@wanadoo.fr;http://chateauvieux05.fr;93;PROVENCE-ALPES-COTE D'AZUR;44.4843559265;6.05084609985;9304;Gap;509;Aix-Marseille;5;HAUTES-ALPES;CA Gap-Tallard-Durance;2;14
232;5039;Aubessagne;Mairie de Chauffayer;Quartier Le Serre;5800;Chauffayer;492552243;mairie.chauffayer@orange.fr;;93;PROVENCE-ALPES-COTE D'AZUR;44.752368927;6.0087480545;9304;Gap;705;Aix-Marseille;5;HAUTES-ALPES;CC Champsaur-Valgaudemar;2;12
233;5040;Chorges;Mairie de Chorges;Grande rue;5230;Chorges;492506030;mairie@mairie-chorges.fr;http://www.mairie-chorges.fr;93;PROVENCE-ALPES-COTE D'AZUR;44.545716;6.275548;9304;Gap;3053;Aix-Marseille;5;HAUTES-ALPES;CC Serre-Pon??on;2;4
234;5043;Aubessagne;Mairie des Costes;Le Village;5500;Les Costes;492500172;mairiedescostes@gmail.com;;93;PROVENCE-ALPES-COTE D'AZUR;44.7456169128;6.03348493576;9304;Gap;705;Aix-Marseille;5;HAUTES-ALPES;CC Champsaur-Valgaudemar;2;12
235;5044;Cr??voux;Mairie de Cr??voux;Le Village;5200;Cr??voux;492431811;mairie@crevoux.fr;http://www.mairie.crevoux.fr;93;PROVENCE-ALPES-COTE D'AZUR;44.5481491089;6.60892009735;9304;Gap;133;Aix-Marseille;5;HAUTES-ALPES;CC Serre-Pon??on;2;5
236;5045;Crots;Mairie de Crots;Place des Ballerins;5200;Crots;492431305;mairie.crots@wanadoo.fr;http://www.crots.fr;93;PROVENCE-ALPES-COTE D'AZUR;44.5341758728;6.47116613388;9304;Gap;1102;Aix-Marseille;5;HAUTES-ALPES;CC Serre-Pon??on;2;5
237;5046;Embrun;Mairie d'Embrun;Place Barthelon;5208;Embrun Cedex;492446600;secretariat.maire@ville-embrun.fr;http://www.ville-embrun.fr;93;PROVENCE-ALPES-COTE D'AZUR;44.5644378662;6.49561500549;9304;Gap;6566;Aix-Marseille;5;HAUTES-ALPES;CC Serre-Pon??on;2;5
238;5047;????ourres;Mairie d'????ourres;Le Village;5300;????ourres;492652049;mairie.eourres@wanadoo.fr;http://www.eourres.fr;93;PROVENCE-ALPES-COTE D'AZUR;44.2133619;5.698618;9301;Digne-les-Bains;141;Aix-Marseille;5;HAUTES-ALPES;CC du Sisteronais-Bu??ch;2;11
239;5048;L'????pine;Mairie de L'????pine;Le Village;5700;L'????pine;492660024;mairie.de.lepine@wanadoo.fr;http://www.mairielepine-hautesalpes.com;93;PROVENCE-ALPES-COTE D'AZUR;44.41664505;5.61563396454;9304;Gap;202;Aix-Marseille;5;HAUTES-ALPES;CC du Sisteronais-Bu??ch;2;13
240;5049;Esparron;Mairie d'Esparron;Le Village;5110;Esparron;492542487;mairie.esparron@wanadoo.fr;;93;PROVENCE-ALPES-COTE D'AZUR;44.4535259;5.903086;9304;Gap;51;Aix-Marseille;5;HAUTES-ALPES;CA Gap-Tallard-Durance;2;14
241;5050;Espinasses;Mairie d'Espinasses;Avenue de l'Espine;5190;Espinasses;492544455;mairie.espinasses@wanadoo.fr;;93;PROVENCE-ALPES-COTE D'AZUR;44.4677505493;6.2187628746;9304;Gap;806;Aix-Marseille;5;HAUTES-ALPES;CC Serre-Pon??on Val d'Avance;2;4
242;5051;????toile-Saint-Cyrice;Mairie d'????toile-Saint-Cyrice;Le Village;5700;????toile-Saint-Cyrice;492663047;mairie.etoile05@wanadoo.fr;http://www.etoilestcyrice.fr;93;PROVENCE-ALPES-COTE D'AZUR;44.3165054321;5.62834405899;9301;Digne-les-Bains;32;Aix-Marseille;5;HAUTES-ALPES;CC du Sisteronais-Bu??ch;2;13
244;5053;Garde-Colombe;Mairie de Garde-Colombe;10 avenue L??on-Trinquier;5300;Garde-Colombe;492662369;mairie@garde-colombe.fr;;93;PROVENCE-ALPES-COTE D'AZUR;44.345419;5.772318;9301;Digne-les-Bains;548;Aix-Marseille;5;HAUTES-ALPES;CC du Sisteronais-Bu??ch;2;13
245;5054;La Fare-en-Champsaur;Mairie de La Fare-en-Champsaur;Les Barraques;5500;La Fare-en-Champsaur;492501035;la-fare.mairie@orange.fr;;93;PROVENCE-ALPES-COTE D'AZUR;44.675365448;6.07217407227;9304;Gap;441;Aix-Marseille;5;HAUTES-ALPES;CC Champsaur-Valgaudemar;2;12
246;5055;La Faurie;Mairie de La Faurie;Route des ????coles;5140;La Faurie;492581784;la.faurie@wanadoo.fr;;93;PROVENCE-ALPES-COTE D'AZUR;44.520275116;5.75483083725;9304;Gap;329;Aix-Marseille;5;HAUTES-ALPES;CC Bu??ch-D??voluy;2;13
247;5056;Forest-Saint-Julien;Mairie de Forest-Saint-Julien;Manse;5260;Forest-Saint-Julien;492504384;mairie.forest.st.julien@wanadoo.fr;http://mairieforeststjulien.wordpress.com;93;PROVENCE-ALPES-COTE D'AZUR;44.6451225281;6.13068723679;9304;Gap;339;Aix-Marseille;5;HAUTES-ALPES;CC Champsaur-Valgaudemar;2;12
248;5057;Fouillouse;Mairie de Fouillouse;Le Village;5130;Fouillouse;492541423;mairie.fouillouse@orange.fr;;93;PROVENCE-ALPES-COTE D'AZUR;44.4579849243;6.00276994705;9304;Gap;248;Aix-Marseille;5;HAUTES-ALPES;CA Gap-Tallard-Durance;2;14
250;5059;La Freissinouse;Mairie de La Freissinouse;Quartier des ????coles;5000;La Freissinouse;492578008;mairie@lafreissinouse.fr;http://www.lafreissinouse.fr;93;PROVENCE-ALPES-COTE D'AZUR;44.5417328;6.0142829;9304;Gap;870;Aix-Marseille;5;HAUTES-ALPES;CA Gap-Tallard-Durance;2;14
251;5060;Furmeyer;Mairie de Furmeyer;Les Savoyons;5400;Furmeyer;492581138;mairie.furmeyer@wanadoo.fr;;93;PROVENCE-ALPES-COTE D'AZUR;44.53984;5.8727029;9304;Gap;171;Aix-Marseille;5;HAUTES-ALPES;CC Bu??ch-D??voluy;2;15
252;5061;Gap;Mairie de Gap;3 rue Colonel-Roux;5000;Gap;492532424;mairie@ville-gap.fr;http://www.ville-gap.fr;93;PROVENCE-ALPES-COTE D'AZUR;44.5588569641;6.07951498032;9304;Gap;42487;Aix-Marseille;5;HAUTES-ALPES;CA Gap-Tallard-Durance;2;99
253;5062;Le Glaizil;Mairie du Glaizil;Le Village;5800;Le Glaizil;492552287;le-glaizil.mairie@orange.fr;;93;PROVENCE-ALPES-COTE D'AZUR;44.7538108826;5.9839758873;9304;Gap;167;Aix-Marseille;5;HAUTES-ALPES;CC Champsaur-Valgaudemar;2;12
255;5064;La Chapelle-en-Valgaud??mar;Mairie de La Chapelle-en-Valgaud??mar;Le Village;5800;La Chapelle-en-Valgaud??mar;492552317;la.chapelle.en.valgaudemar@wanadoo.fr;http://www.lachapelleenvalgaudemar.fr;93;PROVENCE-ALPES-COTE D'AZUR;44.816493988;6.19497919083;9304;Gap;107;Aix-Marseille;5;HAUTES-ALPES;CC Champsaur-Valgaudemar;2;12
257;5066;La Haute-Beaume;Mairie de La Haute-Beaume;Le village;5140;La Haute-Beaume;492587395;mairie.hautebeaume@orange.fr;;93;PROVENCE-ALPES-COTE D'AZUR;44.5642967224;5.6301407814;9304;Gap;9;Aix-Marseille;5;HAUTES-ALPES;CC Bu??ch-D??voluy;2;13
258;5068;Jarjayes;Mairie de Jarjayes;Le Village;5130;Jarjayes;961243027;mairie.jarjayes@wanadoo.fr;;93;PROVENCE-ALPES-COTE D'AZUR;44.5044708252;6.10998392105;9304;Gap;463;Aix-Marseille;5;HAUTES-ALPES;CA Gap-Tallard-Durance;2;14
259;5070;Laragne-Mont??glin;Mairie de Laragne-Mont??glin;2 avenue Arthur-Audibert;5300;Laragne-Mont??glin;492651190;info@mairie-laragne.fr;http://www.laragne.net;93;PROVENCE-ALPES-COTE D'AZUR;44.3153457642;5.8213558197;9301;Digne-les-Bains;3568;Aix-Marseille;5;HAUTES-ALPES;CC du Sisteronais-Bu??ch;2;11
260;5071;Lardier-et-Valen??a;Mairie de Lardier-et-Valen??a;Le Collet;5110;Lardier-et-Valen??a;492542049;mairie.de.lardier@wanadoo.fr;http://www.mairie-lardier-valenca.fr;93;PROVENCE-ALPES-COTE D'AZUR;44.4356857;5.98132759;9304;Gap;352;Aix-Marseille;5;HAUTES-ALPES;CA Gap-Tallard-Durance;2;14
261;5072;Laye;Mairie de Laye;Brutinel;5500;Laye;492500895;communedelaye@wanadoo.fr;;93;PROVENCE-ALPES-COTE D'AZUR;44.6620254517;6.08355093002;9304;Gap;241;Aix-Marseille;5;HAUTES-ALPES;CC Champsaur-Valgaudemar;2;12
262;5073;Lazer;Mairie de Lazer;Le Village;5300;Lazer;492650630;mairie.lazer@wanadoo.fr;http://www.mairielazer.fr;93;PROVENCE-ALPES-COTE D'AZUR;44.3482475281;5.8372502327;9301;Digne-les-Bains;374;Aix-Marseille;5;HAUTES-ALPES;CC du Sisteronais-Bu??ch;2;11
263;5074;Lettret;Mairie de Lettret;Le Village;5130;Lettret;413690086;mairie.lettret@free.fr;http://www.lettret.fr;93;PROVENCE-ALPES-COTE D'AZUR;44.468181;6.061567;9304;Gap;182;Aix-Marseille;5;HAUTES-ALPES;CA Gap-Tallard-Durance;2;14
264;5075;Manteyer;Mairie de Manteyer;Quartier de l'????glise;5400;Manteyer;492578073;mairie.manteyer@wanadoo.fr;http://www.mairie-manteyer.fr;93;PROVENCE-ALPES-COTE D'AZUR;44.537273407;5.96398115158;9304;Gap;436;Aix-Marseille;5;HAUTES-ALPES;CC Bu??ch-D??voluy;2;15
265;5076;M??reuil;Mairie de M??reuil;Le Village;5700;M??reuil;492670958;mairie.mereuil@wanadoo.fr;;93;PROVENCE-ALPES-COTE D'AZUR;44.3871498108;5.72993278503;9301;Digne-les-Bains;87;Aix-Marseille;5;HAUTES-ALPES;CC du Sisteronais-Bu??ch;2;13
267;5078;Mon??tier-Allemont;Mairie de Mon??tier-Allemont;1 place de la Mairie;5110;Mon??tier-Allemont;492664058;mairie.monetier@laposte.net;;93;PROVENCE-ALPES-COTE D'AZUR;44.386328;5.94371;9304;Gap;294;Aix-Marseille;5;HAUTES-ALPES;CC du Sisteronais-Bu??ch;2;11
269;5080;Montbrand;Mairie de Montbrand;Le Forest;5140;Montbrand;492572990;montbrand@wanadoo.fr;;93;PROVENCE-ALPES-COTE D'AZUR;44.5854721069;5.69103193283;9304;Gap;62;Aix-Marseille;5;HAUTES-ALPES;CC Bu??ch-D??voluy;2;13
270;5081;Montclus;Mairie de Montclus;Le Village;5700;Montclus;492670551;mairie.montclus05@free.fr;;93;PROVENCE-ALPES-COTE D'AZUR;44.4149131775;5.68396997452;9304;Gap;61;Aix-Marseille;5;HAUTES-ALPES;CC du Sisteronais-Bu??ch;2;13
272;5084;Montgardin;Mairie de Montgardin;Le Village;5230;Montgardin;492503781;mairiemontgardin@free.fr;http://montgardin.valleedelavance.com;93;PROVENCE-ALPES-COTE D'AZUR;44.5506668091;6.23939704895;9304;Gap;469;Aix-Marseille;5;HAUTES-ALPES;CC Serre-Pon??on Val d'Avance;2;4
274;5086;Montjay;Mairie de Montjay;Le Village;5150;Montjay;492662603;mairie.montjay05@gmail.com;;93;PROVENCE-ALPES-COTE D'AZUR;44.3598709106;5.60536193848;9301;Digne-les-Bains;106;Aix-Marseille;5;HAUTES-ALPES;CC du Sisteronais-Bu??ch;2;13
275;5087;Montmaur;Mairie de Montmaur;Le Village;5400;Montmaur;492580559;mairie-montmaur@wanadoo.fr;http://www.montmaur05.fr;93;PROVENCE-ALPES-COTE D'AZUR;44.5708656311;5.87413883209;9304;Gap;527;Aix-Marseille;5;HAUTES-ALPES;CC Bu??ch-D??voluy;2;15
276;5088;Valdoule;Mairie de Montmorin;Le Village;5150;Montmorin;492660250;mairie.montmorin@orange.fr;;93;PROVENCE-ALPES-COTE D'AZUR;44.4520835876;5.54284286499;9304;Gap;225;Aix-Marseille;5;HAUTES-ALPES;CC du Sisteronais-Bu??ch;2;13
277;5089;Montrond;Mairie de Montrond;Le Village;5700;Montrond;492671288;mairie.montrond@wanadoo.fr;;93;PROVENCE-ALPES-COTE D'AZUR;44.3908958435;5.74079608917;9304;Gap;75;Aix-Marseille;5;HAUTES-ALPES;CC du Sisteronais-Bu??ch;2;13
278;5090;La Motte-en-Champsaur;Mairie de La Motte-en-Champsaur;Place Jean-Hyppolyte-Gondre;5500;La Motte-en-Champsaur;492500966;motte.en.champsaur@orange.fr;;93;PROVENCE-ALPES-COTE D'AZUR;44.7331047058;6.06938314438;9304;Gap;223;Aix-Marseille;5;HAUTES-ALPES;CC Champsaur-Valgaudemar;2;12
279;5091;Moydans;Mairie de Moydans;Route de Nyons;5150;Moydans;492666251;mairie.moydans@wanadoo.fr;;93;PROVENCE-ALPES-COTE D'AZUR;44.399702;5.503793;9304;Gap;46;Aix-Marseille;5;HAUTES-ALPES;CC du Sisteronais-Bu??ch;2;13
280;5092;Neffes;Mairie de Neffes;Le Village;5000;Neffes;492578087;mairie.neffes@wanadoo.fr;;93;PROVENCE-ALPES-COTE D'AZUR;44.5044708252;6.02252817154;9304;Gap;764;Aix-Marseille;5;HAUTES-ALPES;CA Gap-Tallard-Durance;2;14
282;5094;Nossage-et-B??n??vent;Mairie de Nossage-et-B??n??vent;Mairie;5700;Nossage-et-B??n??vent;492662127;nossage-et-benevent.mairie@wanadoo.fr;;93;PROVENCE-ALPES-COTE D'AZUR;44.3139305115;5.7511677742;9301;Digne-les-Bains;16;Aix-Marseille;5;HAUTES-ALPES;CC du Sisteronais-Bu??ch;2;13
283;5095;Le Noyer;Mairie du Noyer;La Ville;5500;Le Noyer;492501145;mairiedunoyer@wanadoo.fr;http://www.lenoyerenchampsaur.fr;93;PROVENCE-ALPES-COTE D'AZUR;44.6977999;6.0121257;9304;Gap;296;Aix-Marseille;5;HAUTES-ALPES;CC Champsaur-Valgaudemar;2;12
284;5096;Orci??res;Mairie d'Orci??res;Le Village;5170;Orci??res;492557026;dgs.mairie.orcieres@orange.fr;http://www.orcieres-mairie.fr;93;PROVENCE-ALPES-COTE D'AZUR;44.6838798523;6.32643222809;9304;Gap;709;Aix-Marseille;5;HAUTES-ALPES;CC Champsaur-Valgaudemar;2;12
285;5097;Orpierre;Mairie d'Orpierre;Le Village;5700;Orpierre;492662136;mairie.orpierre@orange.fr;;93;PROVENCE-ALPES-COTE D'AZUR;44.3134803772;5.69273805618;9301;Digne-les-Bains;386;Aix-Marseille;5;HAUTES-ALPES;CC du Sisteronais-Bu??ch;2;13
286;5098;Les Orres;Mairie des Orres;Chef-lieu;5200;Les Orres;492440040;contact@mairie-lesorres.fr;http://www.mairie-lesorres.fr;93;PROVENCE-ALPES-COTE D'AZUR;44.5139846802;6.54923820496;9304;Gap;584;Aix-Marseille;5;HAUTES-ALPES;CC Serre-Pon??on;2;5
287;5099;Oze;Mairie d'Oze;Le Village;5400;Oze;492572997;mairie.oze@wanadoo.fr;http://www.oze.fr;93;PROVENCE-ALPES-COTE D'AZUR;44.5052986145;5.80523109436;9304;Gap;107;Aix-Marseille;5;HAUTES-ALPES;CC Bu??ch-D??voluy;2;13
288;5100;Pelleautier;Mairie de Pelleautier;Le Village;5000;Pelleautier;492578742;communedepelleautier@wanadoo.fr;;93;PROVENCE-ALPES-COTE D'AZUR;44.5164833069;6.01620388031;9304;Gap;740;Aix-Marseille;5;HAUTES-ALPES;CA Gap-Tallard-Durance;2;14
291;5102;La Piarre;Mairie de La Piarre;Ancienne ??cole;5700;La Piarre;492671482;mairie-de-lapiarre@alsatis.net;;93;PROVENCE-ALPES-COTE D'AZUR;44.4752807617;5.65537786484;9304;Gap;95;Aix-Marseille;5;HAUTES-ALPES;CC du Sisteronais-Bu??ch;2;13
292;5103;Le Po??t;Mairie du Po??t;22 route Napol??on;5300;Le Po??t;492657011;mairie@lepoet-hautes-alpes.com;http://www.lepoet-hautes-alpes.com;93;PROVENCE-ALPES-COTE D'AZUR;44.292116;5.897282;9301;Digne-les-Bains;819;Aix-Marseille;5;HAUTES-ALPES;CC du Sisteronais-Bu??ch;2;11
293;5104;Poligny;Mairie de Poligny;Le Village;5500;Poligny;492505066;poligny_commune@orange.fr;;93;PROVENCE-ALPES-COTE D'AZUR;44.6917495728;6.04885578156;9304;Gap;303;Aix-Marseille;5;HAUTES-ALPES;CC Champsaur-Valgaudemar;2;12
294;5106;Pruni??res;Mairie de Pruni??res;Les Clots;5230;Pruni??res;492506589;contact@prunieres.fr;http://www.prunieres.fr;93;PROVENCE-ALPES-COTE D'AZUR;44.5413322449;6.33323001862;9304;Gap;304;Aix-Marseille;5;HAUTES-ALPES;CC Serre-Pon??on;2;4
296;5108;Puy-Saint-Eus??be;Mairie de Puy-Saint-Eus??be;Le Villard;5200;Puy-Saint-Eus??be;492432881;mairie@puysainteusebe.com;;93;PROVENCE-ALPES-COTE D'AZUR;44.563619;6.418333;9304;Gap;141;Aix-Marseille;5;HAUTES-ALPES;CC Serre-Pon??on;2;4
299;5111;Puy-Sani??res;Mairie de Puy-Sani??res;Les Truchets;5200;Puy-Sani??res;492433888;mairiedepuysanieres@wanadoo.fr;http://www.puysanieres.fr;93;PROVENCE-ALPES-COTE D'AZUR;44.5568771362;6.43442487717;9304;Gap;292;Aix-Marseille;5;HAUTES-ALPES;CC Serre-Pon??on;2;4
300;5112;Rabou;Mairie de Rabou;Le Village;5400;Rabou;492579216;mairie.rabou@packsurfwifi.com;;93;PROVENCE-ALPES-COTE D'AZUR;44.5901069641;6.0050778389;9304;Gap;79;Aix-Marseille;5;HAUTES-ALPES;CC Bu??ch-D??voluy;2;15
301;5113;Rambaud;Mairie de Rambaud;Le Village;5000;Rambaud;492522596;mairierambaud@wanadoo.fr;http://www.rambaud.valleedelavance.com;93;PROVENCE-ALPES-COTE D'AZUR;44.5450363159;6.13219022751;9304;Gap;392;Aix-Marseille;5;HAUTES-ALPES;CC Serre-Pon??on Val d'Avance;2;14
302;5114;R??allon;Mairie de R??allon;La Place;5160;R??allon;492442393;reallon.mairie@wanadoo.fr;http://www.reallon.fr;93;PROVENCE-ALPES-COTE D'AZUR;44.595526;6.363359;9304;Gap;260;Aix-Marseille;5;HAUTES-ALPES;CC Serre-Pon??on;2;4
303;5115;Remollon;Mairie de Remollon;2 rue des Templiers;5190;Remollon;492546298;mairie.remollon@free.fr;http://www.remollon.fr;93;PROVENCE-ALPES-COTE D'AZUR;44.4679977;6.1678664;9304;Gap;445;Aix-Marseille;5;HAUTES-ALPES;CC Serre-Pon??on Val d'Avance;2;4
305;5117;Ribeyret;Mairie de Ribeyret;Le Village;5150;Ribeyret;492660243;mairie.ribeyret@wanadoo.fr;;93;PROVENCE-ALPES-COTE D'AZUR;44.4139213562;5.55438184738;9304;Gap;113;Aix-Marseille;5;HAUTES-ALPES;CC du Sisteronais-Bu??ch;2;13
306;5118;Val Bu??ch-M??ouge;Mairie de Val Bu??ch-M??ouge;15 Grand'rue;5300;Val Bu??ch-M??ouge;492632016;mairie.vbm@orange.fr;http://www.valbuech-meouge.fr;93;PROVENCE-ALPES-COTE D'AZUR;44.2299842834;5.85728883743;9301;Digne-les-Bains;1375;Aix-Marseille;5;HAUTES-ALPES;CC du Sisteronais-Bu??ch;2;11
309;5121;Rochebrune;Mairie de Rochebrune;Le Village;5190;Rochebrune;492544546;mairie.rochebrune@orange.fr;http://www.rochebrune05.fr;93;PROVENCE-ALPES-COTE D'AZUR;44.456379;6.176921;9304;Gap;173;Aix-Marseille;5;HAUTES-ALPES;CC Serre-Pon??on Val d'Avance;2;4
311;5123;La Roche-des-Arnauds;Mairie de La Roche-des-Arnauds;63 place de la Mairie;5400;La Roche-des-Arnauds;492578234;mairie.larochea@wanadoo.fr;http://www.la-roche-des-arnauds.com;93;PROVENCE-ALPES-COTE D'AZUR;44.5635948181;5.95891284943;9304;Gap;1558;Aix-Marseille;5;HAUTES-ALPES;CC Bu??ch-D??voluy;2;15
312;5124;La Rochette;Mairie de La Rochette;Les F??rauds;5000;La Rochette;492523759;villagedelarochette@wanadoo.fr;http://www.la-rochette.valleedelavance.com;93;PROVENCE-ALPES-COTE D'AZUR;44.5939903259;6.15168619156;9304;Gap;475;Aix-Marseille;5;HAUTES-ALPES;CC Serre-Pon??on Val d'Avance;2;4
313;5126;Rosans;Mairie de Rosans;Place Raymond-Hugues;5150;Rosans;492666014;mairie@rosans.fr;http://www.rosans.fr;93;PROVENCE-ALPES-COTE D'AZUR;44.391882;5.469992;9304;Gap;479;Aix-Marseille;5;HAUTES-ALPES;CC du Sisteronais-Bu??ch;2;13
314;5127;Rousset;Mairie de Rousset;12 rue de la Mairie;5190;Rousset;492544550;mairiederousset@gmail.com;http://www.rousset.a3w.fr;93;PROVENCE-ALPES-COTE D'AZUR;44.4676307;6.2326089;9304;Gap;188;Aix-Marseille;5;HAUTES-ALPES;CC Serre-Pon??on Val d'Avance;2;4
315;5128;Saint-Andr??-d'Embrun;Mairie de Saint-Andr??-d'Embrun;Hameau de l'????glise;5200;Saint-Andr??-d'Embrun;492430384;mairie.standreembrun@orange.fr;http://www.saintandredembrun.fr;93;PROVENCE-ALPES-COTE D'AZUR;44.5864649;6.534764;9304;Gap;683;Aix-Marseille;5;HAUTES-ALPES;CC Serre-Pon??on;2;5
316;5129;Saint-Andr??-de-Rosans;Mairie de Saint-Andr??-de-Rosans;Le Village;5150;Saint-Andr??-de-Rosans;492666144;st-andre.mairie@wanadoo.fr;;93;PROVENCE-ALPES-COTE D'AZUR;44.3775749207;5.51342582703;9304;Gap;153;Aix-Marseille;5;HAUTES-ALPES;CC du Sisteronais-Bu??ch;2;13
317;5130;Saint-Apollinaire;Mairie de Saint-Apollinaire;Le Village;5160;Saint-Apollinaire;492442233;mairie.st-apollinaire@orange.fr;http://www.saint-apollinaire.fr;93;PROVENCE-ALPES-COTE D'AZUR;44.5553817749;6.36199998856;9304;Gap;146;Aix-Marseille;5;HAUTES-ALPES;CC Serre-Pon??on;2;4
318;5131;Saint-Auban-d'Oze;Mairie de Saint-Auban-d'Oze;Le Village;5400;Saint-Auban-d'Oze;492580975;mairie.staubandoze@wanadoo.fr;;93;PROVENCE-ALPES-COTE D'AZUR;44.4959754944;5.8467001915;9304;Gap;91;Aix-Marseille;5;HAUTES-ALPES;CC Bu??ch-D??voluy;2;13
319;5132;Saint-Bonnet-en-Champsaur;Mairie de Saint-Bonnet-en-Champsaur;Place Waldems;5500;Saint-Bonnet-en-Champsaur;492500053;info@mairie-saint-bonnet.net;http://www.mairie-saint-bonnet.net;93;PROVENCE-ALPES-COTE D'AZUR;44.682800293;6.07632017136;9304;Gap;2105;Aix-Marseille;5;HAUTES-ALPES;CC Champsaur-Valgaudemar;2;12
322;5135;Sainte-Colombe;Mairie de Sainte-Colombe;Les B??g??es;5700;Sainte-Colombe;492662844;mairie.stecolombe05@orange.fr;;93;PROVENCE-ALPES-COTE D'AZUR;44.2826423645;5.67006015778;9301;Digne-les-Bains;55;Aix-Marseille;5;HAUTES-ALPES;CC du Sisteronais-Bu??ch;2;13
324;5139;D??voluy;Mairie de D??voluy;Le Pr??s;5250;D??voluy;492588938;contact@mairiedevoluy.fr;http://www.mairiedevoluy.fr;93;PROVENCE-ALPES-COTE D'AZUR;44.6869003;5.9468617;9304;Gap;993;Aix-Marseille;5;HAUTES-ALPES;CC Bu??ch-D??voluy;2;15
325;5140;Saint-????tienne-le-Laus;Mairie de Saint-????tienne-le-Laus;Le Village;5130;Saint-????tienne-le-Laus;492543196;mairiestetiennelelaus@wanadoo.fr;http://saint-etienne-le-laus.valleedelavance.com;93;PROVENCE-ALPES-COTE D'AZUR;44.5009994507;6.16330003738;9304;Gap;291;Aix-Marseille;5;HAUTES-ALPES;CC Serre-Pon??on Val d'Avance;2;14
326;5141;Aubessagne;Mairie de Saint-Eus??be-en-Champsaur;Le Bourg;5500;Saint-Eus??be-en-Champsaur;492500339;mairiesainteusebe@orange.fr;;93;PROVENCE-ALPES-COTE D'AZUR;44.7261009216;6.0277299881;9304;Gap;705;Aix-Marseille;5;HAUTES-ALPES;CC Champsaur-Valgaudemar;2;12
327;5142;Saint-Firmin;Mairie de Saint-Firmin;Le Village;5800;Saint-Firmin;492552030;mairiesaintfirmin@wanadoo.fr;;93;PROVENCE-ALPES-COTE D'AZUR;44.7815437317;6.02789115906;9304;Gap;476;Aix-Marseille;5;HAUTES-ALPES;CC Champsaur-Valgaudemar;2;12
328;5144;Saint-Jacques-en-Valgodemard;Mairie de Saint-Jacques-en-Valgodemard;Le Bourg;5800;Saint-Jacques-en-Valgodemard;492552515;mairie.stjacques@wanadoo.fr;;93;PROVENCE-ALPES-COTE D'AZUR;44.7760009766;6.044069767;9304;Gap;149;Aix-Marseille;5;HAUTES-ALPES;CC Champsaur-Valgaudemar;2;12
329;5145;Saint-Jean-Saint-Nicolas;Mairie de Saint-Jean-Saint-Nicolas;Pont du Foss??;5260;Saint-Jean-Saint-Nicolas;492559280;mairie@st-jean-st-nicolas.fr;http://www.st-jean-st-nicolas.fr;93;PROVENCE-ALPES-COTE D'AZUR;44.6668357849;6.2287478447;9304;Gap;1140;Aix-Marseille;5;HAUTES-ALPES;CC Champsaur-Valgaudemar;2;12
330;5146;Saint-Julien-en-Beauch??ne;Mairie de Saint-Julien-en-Beauch??ne;Le Village;5140;Saint-Julien-en-Beauch??ne;492581645;stjulien05@orange.fr;http://www.saintjulienenbeauchene.com;93;PROVENCE-ALPES-COTE D'AZUR;44.6156436;5.7076883;9304;Gap;128;Aix-Marseille;5;HAUTES-ALPES;CC Bu??ch-D??voluy;2;13
331;5147;Saint-Julien-en-Champsaur;Mairie de Saint-Julien-en-Champsaur;Le Village;5500;Saint-Julien-en-Champsaur;492507069;mairie.st-julien-en-champsaur@wanadoo.fr;;93;PROVENCE-ALPES-COTE D'AZUR;44.659673;6.129129;9304;Gap;365;Aix-Marseille;5;HAUTES-ALPES;CC Champsaur-Valgaudemar;2;12
332;5148;Saint-Laurent-du-Cros;Mairie de Saint-Laurent-du-Cros;Route de Serre-Richard;5500;Saint-Laurent-du-Cros;492504287;mairie.st-laurent-du-cros@wanadoo.fr;;93;PROVENCE-ALPES-COTE D'AZUR;44.6433906555;6.10955715179;9304;Gap;550;Aix-Marseille;5;HAUTES-ALPES;CC Champsaur-Valgaudemar;2;12
333;5149;Saint-L??ger-les-M??l??zes;Mairie de Saint-L??ger-les-M??l??zes;Place de l'????glise;5260;Saint-L??ger-les-M??l??zes;492504074;mairie.stleger05@wanadoo.fr;http://www.st-leger05.fr;93;PROVENCE-ALPES-COTE D'AZUR;44.6445999146;6.20032978058;9304;Gap;361;Aix-Marseille;5;HAUTES-ALPES;CC Champsaur-Valgaudemar;2;12
334;5150;Valdoule;Mairie de Sainte-Marie;Le Village;5150;Sainte-Marie;492660366;mairie.saintemarie@orange.fr;;93;PROVENCE-ALPES-COTE D'AZUR;44.4660873413;5.47535276413;9304;Gap;225;Aix-Marseille;5;HAUTES-ALPES;CC du Sisteronais-Bu??ch;2;13
336;5152;Saint-Maurice-en-Valgodemard;Mairie de Saint-Maurice-en-Valgodemard;Le Village;5800;Saint-Maurice-en-Valgodemard;492552809;mairie.st.maurice.valgo@wanadoo.fr;;93;PROVENCE-ALPES-COTE D'AZUR;44.8041992188;6.09623003006;9304;Gap;131;Aix-Marseille;5;HAUTES-ALPES;CC Champsaur-Valgaudemar;2;12
337;5153;Saint-Michel-de-Chaillol;Mairie de Saint-Michel-de-Chaillol;Le Village;5260;Saint-Michel-de-Chaillol;492504857;chaillol.mairie@wanadoo.fr;;93;PROVENCE-ALPES-COTE D'AZUR;44.670024;6.175686;9304;Gap;348;Aix-Marseille;5;HAUTES-ALPES;CC Champsaur-Valgaudemar;2;12
338;5154;Saint-Pierre-d'Argen??on;Mairie de Saint-Pierre-d'Argen??on;Le Village;5140;Saint-Pierre-d'Argen??on;492586581;saintpierre.argencon@orange.fr;http://www.mairie-saintpierredargencon.fr;93;PROVENCE-ALPES-COTE D'AZUR;44.520275116;5.69814586639;9304;Gap;161;Aix-Marseille;5;HAUTES-ALPES;CC Bu??ch-D??voluy;2;13
339;5155;Saint-Pierre-Avez;Mairie de Saint-Pierre-Avez;Le Village;5300;Saint-Pierre-Avez;492652136;stpierreavez@wanadoo.fr;;93;PROVENCE-ALPES-COTE D'AZUR;44.2560882568;5.76148891449;9301;Digne-les-Bains;30;Aix-Marseille;5;HAUTES-ALPES;CC du Sisteronais-Bu??ch;2;11
340;5156;Saint-Sauveur;Mairie de Saint-Sauveur;Chef-lieu;5200;Saint-Sauveur;492431839;mairie@saintsauveur-hautes-alpes.fr;http://www.saintsauveur-hautes-alpes.fr;93;PROVENCE-ALPES-COTE D'AZUR;44.541103363;6.52019309998;9304;Gap;510;Aix-Marseille;5;HAUTES-ALPES;CC Serre-Pon??on;2;5
342;5158;Le Saix;Mairie du Saix;Le Village;5400;Le Saix;492572903;mairie.lesaix@wanadoo.fr;http://www.le-saix-village.fr;93;PROVENCE-ALPES-COTE D'AZUR;44.4752502441;5.82396602631;9304;Gap;108;Aix-Marseille;5;HAUTES-ALPES;CC Bu??ch-D??voluy;2;13
343;5159;Sal??on;Mairie de Sal??on;Le Serre;5300;Sal??on;492662992;mairie.saleon@wanadoo.fr;http://www.saleon.fr;93;PROVENCE-ALPES-COTE D'AZUR;44.3618202209;5.77589988708;9301;Digne-les-Bains;94;Aix-Marseille;5;HAUTES-ALPES;CC du Sisteronais-Bu??ch;2;13
344;5160;Sal??rans;Mairie de Sal??rans;Le Village;5300;Sal??rans;492652413;mairie.salerans@wanadoo.fr;;93;PROVENCE-ALPES-COTE D'AZUR;44.2430725098;5.70616388321;9301;Digne-les-Bains;90;Aix-Marseille;5;HAUTES-ALPES;CC du Sisteronais-Bu??ch;2;11
346;5162;La Saulce;Mairie de La Saulce;Le Village;5110;La Saulce;492542013;mairie@lasaulce.fr;http://www.lasaulce.fr;93;PROVENCE-ALPES-COTE D'AZUR;44.4253883362;6.0077381134;9304;Gap;1587;Aix-Marseille;5;HAUTES-ALPES;CA Gap-Tallard-Durance;2;14
347;5163;Le Sauze-du-Lac;Mairie du Sauze-du-Lac;Les Clots;5160;Le Sauze-du-Lac;492442534;mairie-du-sauze-du-lac-05@orange.fr;http://www.lesauzedulac.fr;93;PROVENCE-ALPES-COTE D'AZUR;44.540654;6.335238;9304;Gap;150;Aix-Marseille;5;HAUTES-ALPES;CC Serre-Pon??on;2;4
348;5164;Savines-le-Lac;Mairie de Savines-le-Lac;1 place de l'????glise;5160;Savines-le-Lac;492442003;mairie.savineslelac@orange.fr;http://www.savines-le-lac.fr;93;PROVENCE-ALPES-COTE D'AZUR;44.5256816;6.4052563;9304;Gap;1098;Aix-Marseille;5;HAUTES-ALPES;CC Serre-Pon??on;2;4
349;5165;Savournon;Mairie de Savournon;Le Village;5700;Savournon;492670314;mairiedesavournon@nordnet.fr;http://www.savournon.fr;93;PROVENCE-ALPES-COTE D'AZUR;44.4219207764;5.79453992844;9304;Gap;266;Aix-Marseille;5;HAUTES-ALPES;CC du Sisteronais-Bu??ch;2;13
350;5166;Serres;Mairie de Serres;1 rue du Portail;5700;Serres;492670350;mairie.serres05@wanadoo.fr;http://www.mairie-serres05.fr;93;PROVENCE-ALPES-COTE D'AZUR;44.4283447266;5.71439504623;9304;Gap;1314;Aix-Marseille;5;HAUTES-ALPES;CC du Sisteronais-Bu??ch;2;13
351;5167;Sigottier;Mairie de Sigottier;Le Village;5700;Sigottier;492671356;mairiedesigottier@wanadoo.fr;;93;PROVENCE-ALPES-COTE D'AZUR;44.454914093;5.69202423096;9304;Gap;92;Aix-Marseille;5;HAUTES-ALPES;CC du Sisteronais-Bu??ch;2;13
352;5168;Sigoyer;Mairie de Sigoyer;Le Bourg;5130;Sigoyer;492578331;mairie.sigoyer@wanadoo.fr;;93;PROVENCE-ALPES-COTE D'AZUR;44.4777908325;5.97590112686;9304;Gap;685;Aix-Marseille;5;HAUTES-ALPES;CC du Sisteronais-Bu??ch;2;14
353;5169;Sorbiers;Mairie de Sorbiers;Le Village;5150;Sorbiers;492662187;mairiesorbiers@gmail.com;;93;PROVENCE-ALPES-COTE D'AZUR;44.3746185303;5.56372976303;9304;Gap;37;Aix-Marseille;5;HAUTES-ALPES;CC du Sisteronais-Bu??ch;2;13
354;5170;Tallard;Mairie de Tallard;1 place Charles-de-Gaulle;5130;Tallard;492541014;mairie@ville-tallard.fr;http://www.ville-tallard.fr;93;PROVENCE-ALPES-COTE D'AZUR;44.4613609314;6.05620384216;9304;Gap;2252;Aix-Marseille;5;HAUTES-ALPES;CA Gap-Tallard-Durance;2;14
355;5171;Th??us;Mairie de Th??us;Le Village;5190;Th??us;492546472;mairietheus@orange.fr;;93;PROVENCE-ALPES-COTE D'AZUR;44.4771499634;6.18782901764;9304;Gap;209;Aix-Marseille;5;HAUTES-ALPES;CC Serre-Pon??on Val d'Avance;2;4
356;5172;Trescl??oux;Mairie de Trescl??oux;Chemin Neuf;5700;Trescl??oux;492662201;mairie.trescleoux@orange.fr;http://www.trescleoux.fr;93;PROVENCE-ALPES-COTE D'AZUR;44.354752;5.708368;9301;Digne-les-Bains;323;Aix-Marseille;5;HAUTES-ALPES;CC du Sisteronais-Bu??ch;2;13
357;5173;Upaix;Mairie d'Upaix;Rourebeau;5300;Upaix;492657026;mairie-upaix@orange.fr;http://www.mairie-upaix.fr;93;PROVENCE-ALPES-COTE D'AZUR;44.3130569458;5.89127111435;9304;Gap;455;Aix-Marseille;5;HAUTES-ALPES;CC du Sisteronais-Bu??ch;2;11
359;5176;Valserres;Mairie de Valserres;Le Village;5130;Valserres;492543001;mairie.valserres@wanadoo.fr;http://www.cc-serreponconvaldavance.com;93;PROVENCE-ALPES-COTE D'AZUR;44.4890480042;6.12735700607;9304;Gap;264;Aix-Marseille;5;HAUTES-ALPES;CC Serre-Pon??on Val d'Avance;2;14
361;5178;Ventavon;Mairie de Ventavon;Le Village;5300;Ventavon;492664054;mairie.ventavon@gmail.com;http://www.ventavon.fr;93;PROVENCE-ALPES-COTE D'AZUR;44.3709182739;5.90567398071;9304;Gap;612;Aix-Marseille;5;HAUTES-ALPES;CC du Sisteronais-Bu??ch;2;11
362;5179;Veynes;Mairie de Veynes;Place de la R??publique;5400;Veynes;492581022;mairie.veynes@free.fr;http://www.ville-veynes.fr;93;PROVENCE-ALPES-COTE D'AZUR;44.5347557068;5.8242058754;9304;Gap;3331;Aix-Marseille;5;HAUTES-ALPES;CC Bu??ch-D??voluy;2;15
365;5182;Villar-Loubi??re;Mairie de Villar-Loubi??re;Le Village;5800;Villar-Loubi??re;492552772;villarloubiere@wanadoo.fr;;93;PROVENCE-ALPES-COTE D'AZUR;44.8255767822;6.14474010468;9304;Gap;44;Aix-Marseille;5;HAUTES-ALPES;CC Champsaur-Valgaudemar;2;12
367;5184;Vitrolles;Mairie de Vitrolles;Le Plan de Vitrolles;5110;Vitrolles;492542566;mairievitrolles05@wanadoo.fr;http://www.mairievitrolles05.fr;93;PROVENCE-ALPES-COTE D'AZUR;44.4127044678;5.95524501801;9304;Gap;212;Aix-Marseille;5;HAUTES-ALPES;CA Gap-Tallard-Durance;2;14
368;6001;Aiglun;Mairie d'Aiglun;9 place de la Mairie;6910;Aiglun;493058535;mairie.aiglun06@wanadoo.fr;http://www.ville-aiglun.fr;93;PROVENCE-ALPES-COTE D'AZUR;43.8577346802;6.91463804245;9307;Nice;91;Nice;6;ALPES-MARITIMES;CC Alpes d'Azur;1;26
369;6002;Amirat;Mairie d'Amirat;21 rue de la Mairie;6910;Amirat;493058055;mairie.amirat@nordnet.fr;http://www.ville-amirat.com;93;PROVENCE-ALPES-COTE D'AZUR;43.8906402588;6.82753896713;9307;Nice;67;Nice;6;ALPES-MARITIMES;CA du Pays de Grasse;1;11
370;6003;Andon;Mairie d'Andon;23 place Victorin-Bonhomme;6750;Andon;493604540;mairie@andon.fr;http://www.ville-andon.com;93;PROVENCE-ALPES-COTE D'AZUR;43.773399353;6.7851099968;9305;Cannes - Antibes;625;Nice;6;ALPES-MARITIMES;CA du Pays de Grasse;1;11
371;6004;Antibes;Mairie d'Antibes-Juan-les-Pins;Cours Massena;6606;Antibes Cedex 6;492905000;mairie@ville-antibes.fr;http://www.antibes-juanlespins.com;93;PROVENCE-ALPES-COTE D'AZUR;43.5806503296;7.12767219543;9305;Cannes - Antibes;74161;Nice;6;ALPES-MARITIMES;CA de Sophia Antipolis;1;94
372;6005;Ascros;Mairie d'Ascros;Mont??e de la Bourgade;6260;Ascros;493058421;maire.ascros@hotmail.fr;http://www.ascros.fr;93;PROVENCE-ALPES-COTE D'AZUR;43.920917511;7.01445579529;9307;Nice;169;Nice;6;ALPES-MARITIMES;CC Alpes d'Azur;2;26
373;6006;Aspremont;Mairie d'Aspremont;21 avenue Caravadossi;6790;Aspremont;493080001;mairiedaspremont@wanadoo.fr;http://www.aspremont.fr;93;PROVENCE-ALPES-COTE D'AZUR;43.7864990234;7.24574995041;9307;Nice;2218;Nice;6;ALPES-MARITIMES;M??tropole Nice C??te d'Azur;2;24
374;6007;Auribeau-sur-Siagne;Mairie d'Auribeau-sur-Siagne;Mont??e de la Mairie;6810;Auribeau-sur-Siagne;492602020;courrier@mairie-auribeau.fr;http://www.auribeausursiagne.fr;93;PROVENCE-ALPES-COTE D'AZUR;43.6004447937;6.91105318069;9305;Cannes - Antibes;3312;Nice;6;ALPES-MARITIMES;CA du Pays de Grasse;1;13
375;6008;Auvare;Mairie d'Auvare;Place de la Mairie;6260;Auvare;493051429;mairie.auvare@orange.fr;;93;PROVENCE-ALPES-COTE D'AZUR;43.9877891541;6.90763807297;9307;Nice;33;Nice;6;ALPES-MARITIMES;CC Alpes d'Azur;2;26
376;6009;Bairols;Mairie de Bairols;Place de la Mairie;6420;Bairols;493029046;mairie.bairols@wanadoo.fr;http://www.bairols.fr;93;PROVENCE-ALPES-COTE D'AZUR;43.9821510315;7.12682580948;9307;Nice;106;Nice;6;ALPES-MARITIMES;M??tropole Nice C??te d'Azur;2;26
377;6010;Le Bar-sur-Loup;Mairie du Bar-sur-Loup;Place de la Tour;6620;Le Bar-sur-Loup;492603570;accueil@lebarsurloup.fr;http://www.lebarsurloup.fr;93;PROVENCE-ALPES-COTE D'AZUR;43.7013015747;6.98917007446;9307;Nice;3000;Nice;6;ALPES-MARITIMES;CA de Sophia Antipolis;1;25
378;6011;Beaulieu-sur-Mer;Mairie de Beaulieu-sur-Mer;3 boulevard du Mar??chal-Leclerc;6310;Beaulieu-sur-Mer;493764700;mairie@beaulieusurmer.fr;http://www.beaulieusurmer.fr;93;PROVENCE-ALPES-COTE D'AZUR;43.7094307;7.3351238;9307;Nice;3743;Nice;6;ALPES-MARITIMES;M??tropole Nice C??te d'Azur;2;4
380;6013;Belv??d??re;Mairie de Belv??d??re;1 place du Colonel-Baldoni;6450;Belv??d??re;493034123;accueil@mairie-belvedere.fr;http://www.mairie-belvedere.fr;93;PROVENCE-ALPES-COTE D'AZUR;44.0144195557;7.32446813583;9307;Nice;688;Nice;6;ALPES-MARITIMES;M??tropole Nice C??te d'Azur;2;24
381;6014;Bendejun;Mairie de Bendejun;1 place Flaminius-Raiberti;6390;Bendejun;493917474;mairie.bendejun@wanadoo.fr;http://www.bendejun.net;93;PROVENCE-ALPES-COTE D'AZUR;43.8100013733;7.31431007385;9307;Nice;958;Nice;6;ALPES-MARITIMES;CC du Pays des Paillons;2;10
382;6015;Berre-les-Alpes;Mairie de Berre-les-Alpes;39 avenue Paul-Granet;6390;Berre-les-Alpes;493918007;mairie.berrelesalpes@orange.fr;http://www.berrelesalpes.fr;93;PROVENCE-ALPES-COTE D'AZUR;43.8301010132;7.32833003998;9307;Nice;1274;Nice;6;ALPES-MARITIMES;CC du Pays des Paillons;2;10
383;6016;Beuil;Mairie de Beuil;26 rue du Comt??-de-Beuil;6470;Beuil;493022020;maire@beuil.fr;http://www.beuil.fr;93;PROVENCE-ALPES-COTE D'AZUR;44.0947990417;6.98821020126;9307;Nice;529;Nice;6;ALPES-MARITIMES;CC Alpes d'Azur;2;26
384;6017;B??zaudun-les-Alpes;Mairie de B??zaudun-les-Alpes;31 rue Haute;6510;B??zaudun-les-Alpes;493591234;mairie.bezaudun@wanadoo.fr;;93;PROVENCE-ALPES-COTE D'AZUR;43.8088989258;7.09651994705;9307;Nice;254;Nice;6;ALPES-MARITIMES;CA de Sophia Antipolis;1;26
385;6018;Sophia-Antipolis;Mairie de Biot;Biot;6906;Sophia-Antipolis Cedex;492915580;accueil@biot.fr;http://www.biot.fr;93;PROVENCE-ALPES-COTE D'AZUR;43.6282594;7.0962443;9305;Cannes - Antibes;10084;Nice;6;ALPES-MARITIMES;CA de Sophia Antipolis;1;3
386;6019;Blausasc;Mairie de Blausasc;Esplanade Nicole-Lottier;6440;Blausasc;493795104;info@blausasc.fr;http://www.blausasc.fr;93;PROVENCE-ALPES-COTE D'AZUR;43.7703281;7.3470298;9307;Nice;1602;Nice;6;ALPES-MARITIMES;CC du Pays des Paillons;2;10
387;6020;La Boll??ne-V??subie;Mairie de La Boll??ne-V??subie;Place du G??n??ral-de-Gaulle;6450;La Boll??ne-V??subie;493030102;labollenevesubie@wanadoo.fr;http://www.labollenevesubie.com;93;PROVENCE-ALPES-COTE D'AZUR;43.9908981323;7.33222007751;9307;Nice;587;Nice;6;ALPES-MARITIMES;M??tropole Nice C??te d'Azur;2;24
388;6021;Bonson;Mairie de Bonson;Place D??sir??-Scoffier;6830;Bonson;493085839;mairie-bonson@wanadoo.fr;http://www.bonson.org;93;PROVENCE-ALPES-COTE D'AZUR;43.860083;7.182585;9307;Nice;742;Nice;6;ALPES-MARITIMES;M??tropole Nice C??te d'Azur;2;26
389;6022;Bouyon;Mairie de Bouyon;1 place de la Mairie;6510;Bouyon;493590707;mairie.bouyon@orange.fr;http://mairiebouyon.free.fr;93;PROVENCE-ALPES-COTE D'AZUR;43.8246002197;7.12226009369;9307;Nice;542;Nice;6;ALPES-MARITIMES;CA de Sophia Antipolis;1;26
391;6024;Brian??onnet;Mairie de Brian??onnet;1 place de la Mairie;6850;Brian??onnet;493604271;mairie-de-brianconnet@wanadoo.fr;http://brianconnet.fr;93;PROVENCE-ALPES-COTE D'AZUR;43.8646736145;6.75810194016;9307;Nice;223;Nice;6;ALPES-MARITIMES;CA du Pays de Grasse;1;11
392;6025;Le Broc;Mairie du Broc;1 place de l'H??tel-de-Ville;6510;Le Broc;492082730;secretariat@lebroc.fr;http://www.mairie-lebroc.fr;93;PROVENCE-ALPES-COTE D'AZUR;43.808542;7.17074;9307;Nice;1421;Nice;6;ALPES-MARITIMES;M??tropole Nice C??te d'Azur;1;17
393;6026;Cabris;Mairie de Cabris;33 rue Fr??d??ric-Mistral;6530;Cabris;493605014;mairie.cabris@wanadoo.fr;http://www.cabris.fr;93;PROVENCE-ALPES-COTE D'AZUR;43.6558990479;6.875;9305;Cannes - Antibes;1350;Nice;6;ALPES-MARITIMES;CA du Pays de Grasse;1;11
394;6027;Cagnes-sur-Mer;Mairie de Cagnes-sur-Mer;Place de l'H??tel-de-Ville;6800;Cagnes-sur-Mer;493221900;nous-contacter@cagnes.fr;http://www.cagnes-sur-mer.fr;93;PROVENCE-ALPES-COTE D'AZUR;43.6631011963;7.148250103;9307;Nice;51406;Nice;6;ALPES-MARITIMES;M??tropole Nice C??te d'Azur;1;95
395;6028;Caille;Mairie de Caille;18 rue Principale;6750;Caille;493603151;mairiecaille@orange.fr;http://www.ville-caille.net;93;PROVENCE-ALPES-COTE D'AZUR;43.7787017822;6.72909021378;9305;Cannes - Antibes;431;Nice;6;ALPES-MARITIMES;CA du Pays de Grasse;1;11
396;6029;Cannes;Mairie de Cannes;Place Cornut-Gentille;6400;Cannes;497064000;mairie@ville-cannes.fr;http://www.cannes.com;93;PROVENCE-ALPES-COTE D'AZUR;43.551153;7.011752;9305;Cannes - Antibes;74686;Nice;6;ALPES-MARITIMES;CA Cannes Pays de L??rins;1;96
397;6030;Le Cannet;Mairie du Cannet;20 boulevard Sadi-Carnot;6115;Le Cannet Cedex;492182000;cmaire@lecannet.com;http://www.lecannet.fr;93;PROVENCE-ALPES-COTE D'AZUR;43.5704672;7.0165127;9305;Cannes - Antibes;41864;Nice;6;ALPES-MARITIMES;CA Cannes Pays de L??rins;1;97
398;6031;Cantaron;Mairie de Cantaron;45 place de l'????cole;6340;Cantaron;493276460;mairie.cantaron@free.fr;http://www.cantaron.fr;93;PROVENCE-ALPES-COTE D'AZUR;43.7616004944;7.31821012497;9307;Nice;1317;Nice;6;ALPES-MARITIMES;CC du Pays des Paillons;2;10
400;6033;Carros;Mairie de Carros;2 rue de l'Eusi??re;6510;Carros;492084470;mairie@ville-carros.fr;http://www.ville-carros.fr;93;PROVENCE-ALPES-COTE D'AZUR;43.7733001709;7.19161987305;9307;Nice;12469;Nice;6;ALPES-MARITIMES;M??tropole Nice C??te d'Azur;1;17
401;6034;Castagniers;Mairie de Castagniers;1 place de la Mairie;6670;Castagniers;493080511;mairiedecastagniers@wanadoo.fr;http://www.mairie-castagniers.com;93;PROVENCE-ALPES-COTE D'AZUR;43.7905311584;7.23072004318;9307;Nice;1630;Nice;6;ALPES-MARITIMES;M??tropole Nice C??te d'Azur;2;24
404;6037;Caussols;Mairie de Caussols;76 place Der??gnaucourt;6460;Caussols;493092964;mairie-caussols@wanadoo.fr;http://www.caussols.fr;93;PROVENCE-ALPES-COTE D'AZUR;43.742477417;6.89961719513;9305;Cannes - Antibes;290;Nice;6;ALPES-MARITIMES;CA de Sophia Antipolis;1;25
